,latitude,longitude,name
128280,32.71951,-117.23455,"Spanish Harbor House, Sleeps 8"
229479,37.4818,-122.19757,Immaculate 2 K Bed/2 Bath for business or travel
140865,36.19894,-86.74095,"‚ûïAiry, Chic & Cozy Loft‚ûïEast LOCAL=Close 2 it all!"
19110,29.96733,-90.05577,Delightful Renovated Victorian by French Quarter
96148,40.77863,-73.91029,Lovely 1 bedroom unit in Astoria
185292,47.61214,-122.3298,View condo & walk iconic Seattle
135247,32.77868,-117.25221,Groundfloor Ocean Front Walk 1 BR/1BA
223527,36.27085,-115.15735,cozy 3 bedroom house
23881,29.95986017331189,-90.0895564627048,Gorgeous Brand new 5BR w/ parking!
18185,29.96615,-90.05264,Marigny Cottage - Walk to Frenchmen
17469,29.97038,-90.05695,Steward's Place | New Orleans Vacation Rental
199674,26.18713,-80.1453,The Mermaid House  Private pool 2.8 miles to beach
185621,47.67489,-122.35261,Phinney 4+ BR 3 BA View House Near Zoo
192128,44.961647033691406,-93.28458404541016,"Modern, Bright & Comfy near Downtown"
104202,40.89538,-73.84272,The Big Apple Duplex With Private Parking
143721,36.16041,-86.80788,The 1865 Studio
42801,34.00673,-118.30601,The California Difference  Home
222621,36.03395,-115.23491,Gorgeous 5B3B house sleeps 12
17111,40.72995,-74.05614,Beautiful 2 Bed 2 Bath GEM!
6249,37.7728,-122.41687,Trendy 1-bedroom loft in the heart of the city
161224,41.93927,-87.68092,Modern Classic Style Vacation Apt at West Lakeview
89480,40.71155,-73.96532,Cozy Apt Located in the Heart of Williamsburg
19738,30.00171,-90.05229,Gentilly's Cozy Corner
230567,37.5615,-122.26971,Foster City Nice Apartment
119493,35.59599,-82.60184,"3 BR w/Fire pit & hot tub, 3 miles to downtown"
4836,37.74872,-122.49485,Sunset Garden Suite with Free Parking
166787,30.293,-97.70094,"Spacious, bright, modern 3 bedroom home in Mueller"
149742,36.97189,-121.95325,The Dolphin House
219478,36.11647,-115.11451,Cozy Getaway 3 miles to LV Strip & Airport
145648,36.19283,-86.76991,"Private guesthouse with balcony, East Nashville"
15097,37.83666,-122.27688,Romantic Retreat in Garden & Trees - Villa Willow
50184,34.15842,-118.36745,Spacious Tasteful Newly Built 3BR Home in 2021 p53
9056,38.92522,-77.03236,Sunny private place with awesome location
81589,40.74427,-73.98084,Luxurious Apt Best Finishes & Location
130624,32.8019741020322,-117.25297235791518,Luxury Escape with Private Rooftop Terrace and Modern Amenities
226743,42.352093,-71.06081,Steps from T | Downtown 2BR | Kitchen+ Desk
101546,40.72668,-73.94476,Artists‚Äô loft in the heart of Greenpoint.
26656,34.0668737,-118.2602683,2 Bedroom With Yard Near Echo Park Lake
113549,37.29658,-121.81052,Cheerful 7 br with 3 ba house With beatific garden
160409,41.94675,-87.65835,Jewel Of Lakeview/Wrigley- walk to Wrigley/Parking
135648,32.71084,-117.15384,Downtown Condo with Parking
145445,36.1744,-86.77973,Cute Condo in the Heart of Nashville Free Parking!
100463,40.76156,-73.99248,428-3R Spacious Prime Midtown 2BR Newly furnished
201596,25.98816,-80.11846,NEW2020 SE 2BR CornerCondo OceanView@Hyde +18floor
53745,33.90479,-118.41999,"""Happy Beach House"" Oceanviews Close to Beach/LAX"
59707,33.939,-118.10394,Perfect Hideout!
61282,34.05485,-118.35192,Quiet 1-bedroom home with free parking on premises
174039,30.2525629,-97.7319724,"East Austin 2br w/ gym, pool & w/d, nr shops"
70859,40.72375,-73.99623,Cozy apartment in Nolita/SoHo
118817,35.63682556152344,-82.6372299194336,Magnolia Cottage.  FALL COLOR-midweek special.
97643,40.75428,-73.90173,"Lovely 2 bedroom near by E, M, R, 7, LIRR trains"
159900,41.93038,-87.64263,Cozy Lincoln Park Condo near the lake.
157161,41.89735,-87.66203,Relax with Family in a Luxury Chicago Single Family Home
227078,42.36534,-71.05614,"King Bed+Den | Near MGH, Suffolk U, Green/Orange T"
215455,36.14845,-115.13815,"Monthly Villa ‚Ä¢ Heated Pool,Spa,FastWiFi,GameRoom"
40464,33.77604,-118.18126,Charming space in a historic craftsman!
73712,40.76411,-73.99371,521 West 48-Beautiful 1 bed with terrace
141581,36.17002,-86.79443,Southern Charmer in the Heart of Music City Downtown
82432,40.71024,-73.96238,Amazing Luxury Loft in Williamsburg
108979,40.739070889600015,-73.86963646758643,1 Bedroom in Elmhurst near Mall
95103,40.78213,-73.84673,Beautiful and Clean whole apartment
176829,30.25702,-97.73767,City Studio Natiivo Austin 13th-Floor | Balcony
157768,41.89463,-87.65636,747 Equator
5130,37.78753,-122.421312,"Lower Nob Hill 2BR w/ Gym & Roof, nr bars"
211536,36.16744,-115.22327,Heated Pool & GAME ROOM!
21108,29.97104,-90.0692,Beautiful Condo near the French Quarter
54881,33.99726,-118.45518,Charming Venice Retreat
23356,29.97848,-90.07062,Newly Updated Henry Jones Cottage 2BR/2BA in NOLA!
184185,47.52521,-122.26123,Bungalow with Wetland Canopy Views from Patio
34887,34.12449,-118.37405,Oasis  in the  Hollywood Hills
29085,34.15577,-118.46733,Sherman Oaks Luxury Modern Condo just for you
193125,44.78364449017304,-93.60242894232788,"Warm, Charming and Cozy Turn of the Century Home"
53908,34.09718,-118.22602,"Casita Isabel: Views, Privacy & Amazing Patio"
12260,38.91099,-77.00335,Lovely 1 bedroom w/ balcony in the heart of NoMA
122569,40.00128,-82.93306,Brand New Luxurious Oasis
153631,39.7646,-105.01185,"Cozy LoHi Studio, yard, walk 2 downtown"
97494,40.66241,-73.98388,2-Story Artist Townhouse in Park Slope
199639,25.97816,-80.15526,Luxury apartment
104599,40.67643,-73.95485,"Studio Bedroom, Bathroom & Living | Private"
127170,41.79946,-71.47437,Lovely one bedroom apartment with backyard access
97825,40.76013,-73.98698,Guest Room with 1 King Bed at Hilton Garden Inn Times Square
121763,39.94887,-82.98559,Beautiful German village home with a hot tub!
164371,30.17146,-97.81726,Beautiful 3 Bedroom Home In South Austin
165296,30.23326,-97.73404,Renovated 2 Bed in Popular East ATX
17068,40.74174,-74.04677,Rain Shower in Unit! Mins from NYC!
219919,36.10251,-114.9297,KV* Remodeled Lake Las Vegas Oasis 2BD/2BA|Balcony
149075,36.16081,-86.80714,08) Entire loft/2 miles to broad
187598,47.62203,-122.29722,Seattle Vacation Home: 3 bed 3 bath Townhome in Madison Valley
48655,34.09269,-118.31103,Feels like Tiny House in a Village w/Private Yard
229637,37.60904,-122.41657,Millbrae Hills In-Law Unit
1056,37.75383,-122.4389,Perfect flat for travelers in peaceful Noe Valley
169908,30.36928,-97.76656,"Stay in 3400 sq "" of luxury,4 bdrooms, home office"
24273,33.984,-118.05205,Amy‚Äôs FrontHouse - Enhanced Cleaning for COVID-19!
205701,26.0997383,-80.1578381,Amazing waterfront property
57585,34.13444,-118.34763,Mid-century hideaway in Hollywood Hills
15889,37.78904904242434,-122.22533043304686,Modern Coastal Home in Central Oakland
215971,36.17228,-115.13309,Studio guesthouse walking distance to Fremont St.
29909,34.12883,-118.2674,Charming French house with garden
165476,30.29908,-97.70872,Newly built 1bed/1bath
20369,29.95063,-90.06971,Heart of New Orleans Classic 2BD/2BA
187614,47.566387,-122.270012,*NoCleaningFee* Basement suite at Lake Washington
138260,32.72096,-117.16375,307/A Loft near San Diego Downtown/Parking included
13732,37.80322,-122.27514,"2-BR Oakland City Center w/parking, BART"
191936,44.96297,-93.22877,Cozy Apt. near DT/UofM/River/parks and lakes - 4
87464,40.76344,-73.97842,Spacious Alcove Studio near Rockefeller Center
136056,32.787758,-117.254341,"Ocean View Mission Beach Home W/ Parking, Patio - Steps to the Beach"
178561,45.45631,-122.73765,"Artsy, private lower level. Minutes from downtown."
161727,41.87710939999999,-87.6338518,"Loop 1BR w/ Gym, Roof & Lounge, same block as L"
142646,36.16393,-86.79965,Nashville Skyline I 5 Minutes to Downtown
106139,40.79426,-73.96323,2 bedroom apartment on Manhattan
222386,36.09550741671199,-115.13052351772784,"Johnson Resort II, Cozy by the Strip & Airport!"
40474,34.09969,-118.3281,Charming Condo in the Heart of Hollywood üá∫üá∏
135207,32.762827253633425,-117.25137776261268,Coastal Modern Family Beach House w/ Bonus Loft
121622,39.94059,-82.97184,Beautifully Updated 3 BR Southern Orchards Estate
169485,30.27259645244761,-97.74972080189671,"Downtown Austin Home, 1 Mile to South Congress Ave"
78421,40.76931,-73.92049,Modern Astoria 1BR w/Private Patio
202669,25.97951,-80.12976,ON THE WATER $3 MILLION HOME ‚Ä¢ 5-MIN TO THE BEACH
3451,37.75682,-122.42513,Spacious Mission Dolores Home w/Outdoor Space
42540,34.0312,-118.51364,Walk to Beach! Santa Monica Canyon 4BR Home & Gorgeous Outdoor Living Spaces
60983,34.23684,-118.25758,Paradise in the hills
56870,34.07777,-117.71543,Claremont/Pomona Cozy quite & comfy 3B/1B home
228010,42.27173,-71.07147,Lovely Studio unit. Everything new!
76108,40.68871,-73.9377,Beautifully designed brownstone apt.  w/ garden
138287,32.74582,-117.1799,"Vibrant, Chic Hillside Apartment with Harbor Views"
157066,41.91584,-87.63554,"Walk to Lincoln Park, North Avenue Beach, and Second City! Lovely Old Town Charm!"
110429,42.38583,-71.12011,Gorgeous Victorian house near Harvard 3 bedrooms
51511,34.11027,-118.31594,Exclusive Celebrity house at Los Feliz
32321,34.11448,-117.73743,Historic Mansion Guest House
189804,44.79811,-93.58544,Great for a small group attending Ryder Cup!
62170,34.07876,-117.97204,Modern stylish Home LA/Beaches/Disneyland 4BR/2BA
159726,41.88732,-87.63194,Spacious Studio River North Overlooking the River
175286,30.4033646,-97.7226447,Frontdesk | 1 BR Apt near Barton Springs
30277,34.07022,-118.13311,‰ºòÁæé„ÄÅÂÆÅÈùôÁöÑË±™ÂçéÂÖ¨ÂØìÂú®Ê¥õÊùâÁü∂ÁÜôËáªË°åÈ¶Ü
8578,38.91084,-77.00718,3 Bedroom Luxury Unit in Heart of City  w/parking
98357,40.73759,-74.00195,Exceptional space in West Village
114487,37.38056,-122.09887,Private Guest House
69704,40.73143,-73.98862,East Village Townhouse
148967,36.1553,-86.77504,CW Marg Vacation Club Nashville | King Bed Studio
225267,42.35689,-71.06206,Corner 1 bed facing Golden Dome
86402,40.7892,-73.97423,"Gorgeous UWS 2 Bed w/ Gym, Laundry, Rooftop  #6140"
25877,34.04607814731178,-118.24972538305002,Artistic downtown La loft Space
192225,45.18587,-93.22815,Private 4 BR Home with Wooded Backyard
144622,36.1802,-86.74634,Modern oasis: near everything but away from it all
16404,40.7346,-74.05005,NYC Gateway - Keyless Studio Across Holland Tunnel
49253,34.0316,-118.4827,1 Bedroom Bungalow Apartment in Santa Monica
208187,26.14177,-80.12426,Cozy and Private studio near the ~Beach~
121472,39.98595,-83.00533,King Bed ‚Ä¢ Right On High St ‚Ä¢ FREE Parking  ‚Ä¢ Short North ‚Ä¢ Downtown ‚Ä¢ Ohio State (The Book Loft)
172137,30.3089,-97.70598,Boho Chic 1 BR Condo Near DT - Great for SXSW
23554,29.93987,-90.06942,Warehouse District/Downtown Condo at Cotton Mill
130556,32.82772,-117.27851,The Rosemont III - La Jolla Luxury
79603,40.71216,-73.95155,Brooklyn Studio; Williamsburg to Manhattan - 10min
52344,33.97932,-118.35232,"Clean, contemporary stay near SoFi Stadium"
59914,34.09005,-118.12942,Comfortable Stylish Home|4Beds|Walk to DT Alhambra
188067,47.6082792,-122.330229,First Hill 1BR w/ Gym & Coworking
95099,40.73018,-73.99877,Cozy Studio in Washington Sq Park! For 2 with W/D!
14362,37.81471,-122.28751,Penthouse with sweeping views in West Oakland
91051,40.81228,-73.94718,"1-Bedroom, Sun-drenched, Express Trains"
39682,33.77337,-118.19419,"Chic, Sunny Downtown 1BD - Steps 2 The Waves!"
68795,40.7084,-73.94611,1BR UNFURN SUBLET in Williamsburg
226905,42.35522,-71.05798,Bright + Clean Studio Loft in Downtown Boston
170124,30.27162,-97.74757,Wyndham Austin Resort ~ 2B Pres ~ Walk to 6th St!
46212,34.10453,-118.34173,"Charming, Spacious Apartment in Hollywood"
229744,37.45242,-122.16606,Executive 1 Bdrm Renovated Downtown Menlo Park W8
33727,34.0907,-118.37814,"West Hollywood Hip Prime Location,"
40165,34.1735,-118.44064,Modern 3BR Townhouse‚òÖ Private Covered Parking ‚òÖ Mins to Universal & WB Studios
118855,35.519108,-82.613289,The Farmhouse at Wolfehaven
63411,34.08203,-118.37773,PERFECT LOCATION: 2 BR West Hollywood Retreat
82483,40.75923,-73.95378,NYC cozy studio
162656,41.96101,-87.75603,Chic|Comfy|Renovated1Bd1Ba Perfect for Couples
64412,34.06039,-118.38328,Deluxe Queen Studio Steps from Beverly Hills
19292,30.04016,-89.9472,NOLA Getaway House
97347,40.69013,-73.93513,"Brooklyn‚Äôs best luxury-3 BR, 2 bath; 3rd floor apt"
121247,39.94946,-82.98334,Housepitality - Top Choice Flat - Great Location
118383,35.62921,-82.58127,"AVL Creekside Bungalow, 12min DT, Hot Tub, Dogs ok"
100517,40.68313,-73.88454,"Cozy 3-Bedroom Duplex in Brooklyn, NY"
131018,32.71252,-117.15836,Urban Studio - Steps To All The Attractions
140763,36.17029,-86.74104,"E. Nashville -Close to Everything, 265 5* Reviews,"
172805,30.23968,-97.74218,"Luxury space, quiet but very close to downtown"
108305,40.79745246642332,-73.96220015145812,6-Bedroom Central Park Apartment
151046,39.75513,-105.02931,Updated Highlands Bungalow *5 min to downtown*
224987,36.01107,-115.26993,Homey&spacious 4b/3b gated house
184432,47.6139,-122.33276,"The Camlin, WA, Studio Sleeps-4 #1"
140432,32.83496,-117.27731,Colorful 2BR Dog Friendly | Deck | W/D
217891,36.1011,-115.24008,Cheerful 4 bedroom home with pool.
421,37.78627,-122.39069,Walk to the Waterfront from a High-Tech Studio Flat
81036,40.74185,-73.92569,"Cute, clean and sunny one bedroom with character"
221149,36.21054,-115.21137,Come relax at our getaway home!
71090,40.66414,-73.97798,Charming Brownstone Apt in Heart of Park Slope
10654,38.8317,-77.00643,Charming 1 Bedroom Apartment
109187,40.73716809794468,-73.86443706931017,Sunlit 2Bed 2Bath with Large outdoor Green Space
152377,39.7614,-105.00934,"4 Story Dream House in Denver's LoHi with 3,300 SF"
175462,30.2324106,-97.7341406,Condo Near Downtown Austin
117909,35.55986,-82.51746,Britt & Ruth's Place Monthly Rental
29278,34.058984004564174,-118.3825002377594,Queen Bed Private Bath Studio
125283,41.82791,-71.36269,Brand newly renovated bungalow near BROWN and RISD
172705,30.35659,-97.64202,4b/2.5b | Spacious single house at Great Location
147738,36.14566,-86.81432,Loft at 30th - Neon Jukebox - Mins to Broadway
67951,40.6971,-73.9827,"Beautiful, spacious apartment - with a cute cat!"
228306,42.30159,-71.07647,Brand-new spacious 4 bedroom home w/ keyless entry
6455,37.75639,-122.43642,Luxury Condo w/ Panoramic Views
164539,30.35497,-97.73553,"Charming Bottom Floor, 2 Bedroom 2 Bath Condo"
130755,32.724692356224736,-117.16781314462423,LovelyLittle Italy condo in San Diego
162785,41.8676695,-87.62611919999999,South Loop 1br nr L & Grant Park
182505,45.52127,-122.68735,Private and Elegant Condo - Precious Location!
68157,40.72053,-73.95458,Williamsburg 2BR 2BA Hotel Condo
193387,44.98889,-93.21862,Apt 3 by U of M *Free Parking*!
124317,41.49177,-71.27891,Minutes to beach and downtown! Coastal Cottage
20451,29.926,-90.12312,"Prime UPTOWN 1bd by Audubon Park, Tulane & Loyola!"
24066,29.97489865835224,-90.04854512804869,Carnival Suite: 1BD (KING)/1BA+Free Parking+Yard
5200,37.7491,-122.42655,"Central Studio SF, fully stocked, walk everywhere!"
59458,34.06145,-118.38064,Luxury Penthouse Unit In Beverly Hills With View
216362,36.10577,-115.16748,H10AB1 2BD/3BAPH Floor/Balcony/Pool/Full Kitchen
194419,25.98609,-80.11805,Amazing Hyde Resort 1/1 Beautiful Beach Views
221340,36.09981,-115.21387,Beautiful Resort Vegas - (11/04 - 11/11) 1 Bedroom
45966,33.77963,-118.19687,Sunny upstairs Unit w/ balcony in 1920s Craftsman
231685,37.61075,-122.47896,@ Marbella Lane - Rejuvenating Coastal Oasis
67224,40.72682,-73.98372,NYC studio in St Marks Place & 1 Ave
105897,40.68632,-73.84763,"[Big Unit] 1Bd, Kitchen&Bathroom"
169401,30.25065,-97.78545,Private Barton Hills Home- Sleeps 6
166299,30.26822,-97.72782,Penthouse Suite - East Downtown - Designer - Walk
109887,42.38225,-71.11953,"Private, quiet and clean studio in ideal location"
61087,34.09477,-118.36569,Luxury 1BR apt in the Heart of West Hollywood
140849,36.17168,-86.79644,DOUBLE DECKER 3-STORY HOME ‚òÖ 360 ROOFTOP VIEWS!
197177,25.98658,-80.12377,5-MIN FROM BEACH ‚Ä¢ STYLISH CONDO ‚Ä¢ STUNNING VIEWS
211859,36.12357,-115.19584,33% OffSpringSpecial-AdorableCondoByStrip &Leisure
92542,40.73382,-73.8487,"Great House for charities events, partie, meeting!"
25844,34.05597,-118.3403,Charming Spanish Duplex in Mid City-Los Angeles
178360,36.63027421983373,-121.9224703116394,Oceanfront Panoramic Ocean and Monterey Bay Views
118848,35.46208,-82.5723,"Cozy, Pet-friendly üê∂üêà Home, Backyard, Full Kitchen"
204173,26.05082,-80.11294,The Nook Hollywood | Few steps away from the Beach | Pool and Free Parking!
110334,42.375156,-71.134804,NEW Remodeled 2 Bedroom-Cambridge/Harvard/MIT
96254,40.66884,-73.98907,Lovely apartment with huge terrasse in Brooklyn
157242,41.94234,-87.66306,Family Friendly Triplex a Short Walk from Wrigley
230530,37.52312,-122.51299,"Waves Retreat: Hear the Ocean, Walk 2 Beach, Surf!"
210840,26.05154,-80.20455,Villa overlooking Seminole Hardrock Casino!
185531,47.68226,-122.30679,Newly refinished Ravenna basement apartment
13254,38.9034,-77.00522,1st Street 1 DeluxeBR|Gym + Business Center |Noma
202647,26.2491054,-80.0887081,"Wow!Condo 5 min walk to Beach,Shops & Restaurants!"
73004,40.74518,-74.00114,Pleasant studio Chelsea (Manhattan)
201947,26.06157,-80.17804,Luxurious 1/1Free Parking/Fort Lauderdale Airport
207107,26.11976,-80.13051,Walk to Las Olas!   Great home with huge backyard
102359,40.76805,-73.92779,3BD APT | Private RoofTop | 10 mins from Manhattan
7951,38.89584,-76.9922,Capitol Hill Suite-FREE PARKING!‚ÄîClose to it all!
204823,26.02956,-80.18396,Entire home available to individuals who qualify.
53875,33.88642,-118.40617,Cute Bright Surf Cottage Blocks to Beach
73175,40.75107,-73.98244,Classic Loft steps from Grand Central Station
107155,40.67628231326392,-73.97853996422258,Cozy and new fully furnished 1BD/1BR in Park Slope
213570,36.16478,-115.1182,Gorgeous Remodeled Home w/ HUGE Backyard
142170,36.16712,-86.81888,Modern 2 Story Luxury Home Minutes To Downtown
185359,47.60443,-122.30846,Small Oasis in the City
53282,33.89878,-118.41573,Manhattan Beach Ocean View Home
224127,36.10567,-115.16596,A37B2 Studio w/No Resort Fee/Pool/Gym
183323,47.60947,-122.3447,Incredible Waterfront Condo Near Pike Place Market
23313,29.94841,-90.04714,"Bright, Art-Filled Home Steps from Algiers Ferry!"
204200,25.97677,-80.12074,"Beachfront  Penthouse Unit, 2 bedroom 2 bath"
193536,45.01291,-93.32419,Affordable Spacious home with 6 private rooms
118992,35.5905,-82.46953,"10mins to Downtown Asheville - Quiet, Private Home"
180615,45.55025,-122.66366,Backyard Cottage in Inner NE Portland
213238,36.0342,-115.17276,Las Vegas Blvd Condo - 2bed/2bath Twin
123135,41.37171,-71.4864,"Point Judith house, some ocean view"
160195,41.95147,-87.678,"Grace House | Cozy, contemporary + convenient 2-BR"
152369,39.71091,-104.92111,Denver/Glendale/Cherry Creek - Mid-Century Modern
198475,26.12951,-80.10466,Lovely 2 BR/2BATH Rental Unit at W Hotel!
161960,41.91815,-87.67558,Sunny Getaway Steps from Bucktown + Wicker Park
150789,39.69551,-104.92489,Tiny Home in the Heart of the City- ECO FRIENDLY
124440,41.66431,-71.2658,"‚òÖ 3BR-Sleeps 6, near wedding venues, 1mi downtown"
48194,34.02466867606857,-118.51256367011229,Ocean Facing Apt: Panoramic Ocean Views & Terrace
192535,44.96378,-93.23972,Lovely 2bdrm apt above Farm supply in S Mpls.
23056,29.94494,-90.075,Historic Apartment 2 Blocks From St. Charles
137187,32.77267,-117.19556,Stunning Bay Park View Home
64813,34.13805,-118.42689,Sherman Oaks Hills - MODERN GEM..south of the Blvd
225877,42.36194,-71.06256,Spacious 1 bdrm in Beacon Hill
201622,25.98573,-80.1223,Great 2BR amazing SouthBayView w/Kitchen  9Floor
138844,32.84683,-117.2775,Charming Condo in Heart of La Jolla Village - Ocean front Building
228950,37.39364,-122.20183,Modern Stanford/Palo Alto Guest House
35282,34.05008,-118.3462,Quiet oasis in the middle of the city
131243,32.74541,-117.09639,‚ô• Adorable Bungalow ¬∑ Sunshine‚òÄÔ∏è¬∑ King Size Bed
105847,40.75865,-73.96221,"Midtown East 2br w/ elevator & doorman, nr river"
83326,40.73269,-74.00254,"2, 3 or 4  Floors, Heart of Greenwich Village"
225272,42.32546,-71.08894,Entire two-bedroom apartment near Longwood
5182,37.76247,-122.45339,UCSF Woodland studio
121971,39.92684,-82.82294,Lovely 1-bedroom rental unit with free parking
153453,39.71571,-104.98936,Newly Built Guest House - Baker Neighborhood
169426,30.379806518554688,-97.95628356933594,Cozy Cottage Near Lake Travis
109276,40.65942649962332,-73.96174272363129,Stylish Prospect Park Apartment
142652,36.18623,-86.81456,Stylish Downtown Nash./13 beds/2nd Home Opt
229191,37.58487,-122.39266,"Cozy, Spacious Villa with Private Pool & Bay View!"
63067,34.07927,-118.26954,HAPPY Silverlake/EchoPark Cottage near Sunset Blvd
191154,45.308323,-94.030373,"Cast Away - on Indian Lake - Maple Lake,  1 of 2"
86190,40.67149,-73.98129,"3 Bedroom, Park Slope, Top/4th Floor (walk up)"
142439,36.17246,-86.80631,2 miles downtown. Sleeps 12. Brand new.  Classy
220509,36.09995,-115.21315,2 BEDROOM TROPICANA AVE LAS VEGAS NEVADA 89103
152815,39.65247,-104.92255,Rabbit Hill
123921,41.49427,-71.30879,Bello Newport
161928,41.94448,-87.72051,Avondale Chicago -  1 of the world's coolest hoods
144920,36.24303,-86.73736,"LOFT LULA 'NORTH' in Nashville, TN"
122287,39.98585,-83.07156,Modern Apartment in Prime Location (ID1168X881)
20800,29.93484,-90.09535,Pink Door Garden Cottage - Walk to the Streetcars!
170034,30.26596,-97.74173,Kasa | Laptop Friendly + Fast WiFi | Austin
76480,40.69893,-73.99392,Perfect Location: Long Stays Welcome
222325,36.11354,-115.19951,WM50 Studio Suite/No Resorts Fee/Lobby Bar
72609,40.72615,-74.00225,Lovely 1-bedroom apartment in SoHo!
122160,39.92948,-82.98763,"2BR Duplex ‚Ä¢ Big Kitchen, Office, Central Location"
127152,41.49814,-71.31141,2 BR furnished house in prime Newport location
118711,35.59918,-82.49802,"5 miles to Downtown Asheville, Great Location!!!"
22166,29.97178,-90.08168,Stylish Home 1 Mile to FQ + Jazzfest
180404,45.55256,-122.64555,The Mid-Century Crane House
133942,32.71198,-117.15797,Charming Modern Gaslamp Loft
86745,40.64332,-73.95544,Gorgeous Townhouse Apartment
92676,40.76522,-73.87155,Cozy upstairs apt w/ two beds and street parking!
96068,40.78252,-73.98368,1 Bedroom Apt in Lovely Upper West Side Townhouse
33954,34.08376,-118.1891,"Explore Los Angeles from a Modern, Hip Bungalow with a Porch"
230110,37.68955,-122.4838,Premium Luxury Suite with KING BED | 20 Mins to SF
77459,40.68391,-73.9919,Cool town house
135076,32.72632,-117.12641,Pet-Friendly Blanca Bungalow Artist Retreat
196115,25.98594,-80.12279,38 Beautiful one bedroom apartment with NiceView
137140,32.80798317452111,-117.25201449979238,1 Bedroom Pacific Beach Getaway
162844,41.89885,-87.6442,2BR Well-Equipped Apartment with Laundry and Wi-Fi
105492,40.682142,-73.754958,Newly Renovation Basement Apt.
107019,40.7590689,-73.9632822,"Midtown East 2br w/ elevator & w/d, nr East River"
185537,47.6832,-122.30597,Luxury Home minutes to downtown
128806,32.73862,-117.25354,3b/3b Beach Living-1/2blk to Ocean!
114309,37.31863885313671,-121.95505637651628,Modern 2B1B with Full Kitchen Near Santana Row
130568,32.77235605696905,-117.2504364230173,Mission Beach condo near bay
138921,32.93275494848392,-117.24874111984626,Del Mar Haven -  Walk to Beach - Torrey Pines Golf
120192,35.47779,-82.5149,"South AVL, close to hospitals!"
734,37.74453,-122.46227,Gorgeous & stylish unit w/parking
132518,32.71393,-117.15804,Bright Downtown San Diego Loft
190607,44.96388,-93.28166,Minnestay* Victorian Ivy ‚òÖ Walk to Convention Center ‚òÖ Uptown and Downtown
196342,26.11737,-80.15408,Paradise Blue - Private Cottage/Patio/Parking/Pets
875,37.75394,-122.48475,"2BR Garden Suite w/Trampoline, free SF Zoo passes"
118655,35.53139,-82.62468,"Minutes to Downtown; Hot Tub, Fireplace, Dogs OK!"
43365,34.10573,-118.34024,Best LA/ Hollywood Loc Beautiful Large 1/1
15966,40.74996,-74.05218,BRIGHT AND COZY APARTMENT MINUTES TO NEW YORK CITY
61545,34.18771,-118.55925,"Brand-New, Bright, and Modern"
4974,37.73423,-122.43098,Private 1-bedroom w/ patio and separate entrance
55241,34.14722,-118.00098,"Monrovia Old Town, Beautiful 1 bedroom Townhome"
125675,41.34041,-71.73381,Romantic water view cottage - CASITA AL MAR
31279,34.042004,-118.444336,Sawtelle 1BR w/ Community Area nr downtown LA
31554,34.094,-118.30034,Beautifully Remodeled 2-Bedroom in Hollywood
157165,41.8661,-87.6271,Blues Brothers - Express | South Loop Studio
70071,40.68458,-73.95878,Spacious Clinton Hill 2bd/2 bath w/ patio & office
55259,34.03882,-117.85978,Breeze on N Country Hollow Dr#41682
154114,39.76243,-105.01348,Chic NEW listing in Heart of Highland I Sleeps 7
53069,33.99194,-118.47318,Close to Venice/SM beach
152766,39.77849,-105.03947,Hip happy home in a hot hood!
174144,30.35718,-97.69866,Hidden Gem in North central Austin
155425,39.7517988,-105.003911,"LoDo 1BR w/ Pool, w/d & bbq nr Union station"
14973,37.80856555268247,-122.21726709950836,1++ bedroom creekside home in coveted neighborhood
229227,37.47373,-122.1996,Cozy Cottage close to Stanford + Caltrain
144878,36.174458,-86.781174,Happiness on Nashville's Riverfront  - Unit #1002
173494,30.28426,-97.74835,Lovely 6 Bedroom Suite!!
191890,44.95843,-93.10034,Lot of space for large group with 6 bd 2 ba 2600SF
171128,30.25876,-97.79363,1.5 Miles From ACL! Walking Distance
30241,34.04228,-118.26443,"Walk to Staples center, fully remodeled!"
72709,40.80442,-73.95875,Comfty 1BR apt in Upper West Side
224161,36.11654,-115.08155,"Comfortable, clean and relaxing"
98941,40.745914,-73.918182,Charming and quiet one bedroom apartment in queens
123466,41.48147,-71.31321,3 Bd 2 Bath dwntwn Nwpt Getaway w 2 parking spaces
139883,32.80251,-117.23015,Hideaway @ Felspar Street
87246,40.6682,-73.88527,"Top FLoor Condo, 35 mi to City, 10 mi JFK"
192285,44.94001,-93.11116,Charming & Sparkly - Heart of historic Saint Paul
8020,38.93723,-77.03867,Light-filled airy studio in the heart of DC
17716,29.96386,-90.05963,"Bright 2BR, best location, Patio!"
150525,36.97422,-122.03202,Elegant 3-Room Suite in downtown Victorian
172587,30.26308,-97.73473,Downtown Bungalow & Back House
72848,40.71924,-73.95767,PRivate STudio:  L Train Bedford Stop
225841,42.31345,-71.05631,Large apartment for up to 6 ppl/2nd floor
63356,34.09377,-118.34385,Modern 1-bedroom with parking close to Downtown LA
114549,37.332924,-121.912297,San Jose - The Alameda 1BR w/ Spa & On Site Retail
11306,38.899105,-76.998886,Centrally located charming 1 BR in Capitol Hill
126992,41.48979,-71.31929,CW Long Wharf | 2BR/2BA King Bed Suite
40273,34.01508,-118.18026,Downtown LA Loft (pool+jacuzzi+garage+gym) XOXO
8544,38.88611,-76.99037,Redeveloped Historic Row House
165274,30.31048,-97.7288,Hyde Park Hideaway
167363,30.20961,-97.78305,Central & Modern: Large Patio & Beautiful Outdoors
177162,30.25657028695593,-97.7672292621873,Zilker Original | Craftsman Bungalow | Walk to Fun
3890,37.78431,-122.4147,Remodeled Downtown Studio w/ a View
52765,34.16988,-118.40964,Cozy LA Farmhouse Charm w/Hot Tub & Fire Pit
46403,34.20521,-118.46253,Spacious 1-Bedroom Modern Guest Suite w/ Queen Bed
44565,34.16932,-118.04727,Cozy Cottage near Pasadena
65136,34.1407,-118.24134,Cozy Bungalow adjacent to Americana
3903,37.79048,-122.43208,Luxury 2 bedroom apartment in Pacific Heights
201546,25.98494,-80.12351,BEACHWALK RESORT
138040,32.74315,-117.16463,Beautiful 1 Bedroom Home in Hillcrest!
33838,34.06042,-118.38345,Double Spacious Unit with Private Bath
96729,40.71505,-73.94216,Private Backyard 2-bedroom Home in Prime Area! ‚ú®‚ù§Ô∏è‚ú®
37690,34.1463,-118.37833,Charming Guest House in the heart of Studio City
184689,47.68454,-122.35851,Private Oasis on Phinney Ridge!
18562,29.9715,-90.05872,NEW Aqua Oasis FRENCHMEN st walk to FRENCH QUARTER
183760,47.64008,-122.3032128,Montlake Lg. Apt. 2 bd. / 2 bth. Bakery and parks.
192199,44.9225,-93.13881,Tuscarora Retreat - Office Space & Pet Friendly
163980,30.20943,-97.77117,Big cute clean Casita in SxSAustin!
148430,36.15623,-86.77605,CW Marg Vacation Club Nashville | King Bed Studio
134957,32.7748,-117.2525,Beachy Keen Townhome on Jersey Crt! Steps to Sand
198896,26.0031,-80.14638,"Modern Luxury Remodeled Home, minutes from beach!"
167002,30.24849,-97.75062,Trendy 'Austin Soul' Home Steps to South Congress!
123007,41.49371,-71.30694,"Charming, Impeccable 1B Condo"
202919,26.15939,-80.13554,WIlton Manors 3 Bed-Walk everywhere on Wilton Dr.
130411,32.78527,-117.25345,"1BR/1BA Steps to Ocean & Restaurants, Central MB"
94409,40.67496,-73.87161,Clean Modern  2 BR Apartment Sleeps 6 - Accessible
129882,32.70887,-117.0702,"Whayle Pod: 2 Homes, 2x the Fun!"
103885,40.74158,-73.9826,Lovely and Stylish 1 Bedroom Apt in Midtown #6170
79648,40.87157,-73.86017,Bronx Cozy 1 Bedroom Apartment with entire access.
61693,34.18084,-118.41875,Amazing 4BR House For Families With Hotub!
216399,36.26819,-115.20516,3 Bedroom Desert Oasis
89908,40.64002,-73.90947,Brooklyn‚Äôs Cozy Condo
173695,30.27548,-97.71576,Suave East Austin Oasis- 5 mins to downtown ATX
164739,30.4149,-97.73722,Charming Cottage close to Domain
10898,38.92096,-77.01194,"Sunny and spacious house, perfect for WFH"
92944,40.76453,-73.98366,Luxury 2BR at 8th & Broadway | Hells Kitchen NYC
54302,33.75599,-118.14008,Belmont Shore! 2 mins. from Rosie's Beach!
134131,32.71121,-117.15693,Stylish 1 bedroom Condo in downtown high rise.
63455,34.07721,-118.37243,Newly renovated apartment in the best location
20302,29.97215,-90.05468,"Nice apt very close to FQ, St Claude & Mardi Gras"
14644,37.84289,-122.26492,Lively One Bedroom
194276,26.16592,-80.11176,2BR/2BA Just 0.8 miles to Beach
42756,34.10485,-118.33297,20ft Ceiling Hollywood PH Loft
45246,33.95547,-118.36119,NEW The Chamomile | Bright Easy Studio for Two
123801,41.15368,-71.55589,Bluff Beaches
180537,45.48862,-122.59636,SE FoPo Bright & Cool 2Bd - Close to Everything!
199839,25.98636,-80.12233,1B1B Ocean View Beachwalk Luxury Resort Hallandale
133919,32.78432,-117.25376,2 Levels of Ocean Front ‚òÜ AC ‚òÜ 2 Corner Units
43711,34.03246,-118.47113,Lovely 1 unit apartment close to the beach
94583,40.67435,-73.92585,QUIET AND COMFORTABLE... 3BR BKLYN Condo!!!
80512,40.76086,-73.96598,Cozy apartment at the south tip of central park
199527,26.25356,-80.08796,Convenient Studio | Pool | Washer/Dryer
102592,40.70104,-73.92557,Brooklyn: High floor luxury apartment
153041,39.72413,-104.94633,Mid Century Modern 3 Bedroom +Office with Rooftop!
180571,45.50885,-122.62735,Hawthorne - a block or 2 to just about everything!
174852,30.19363,-97.75079,Charming Fully Equipped 4 BR in South Austin
103517,40.80359,-73.9666,Upper West LUX Four Bedroom Suite
85132,40.68514,-73.91553,String lights garden home one minute from subway
56010,34.07588,-118.0694,New! Gated Modern Home 3BR/2BA-Spring Getaway
17937,29.94582,-90.12625,Private backhouse w/ kitchen in Carrollton area
130960,32.62872,-117.07136,Modernly Remodeled home in Down Town Chula Vista
141583,36.18744,-86.76319,Sophie's Suite - East Nashville
198859,26.21657,-80.09569,Walk to Beach + Seasonally Heated Pool
164338,30.2577,-97.7675,Modern Garage Apt - Walk to ACL!!!
33487,34.17856,-118.28583,Adorable 2bed Guesthouse with free Parking
153408,39.70672,-104.98244,Sunny & Stylish 1BR in Wash Park!
227526,42.33848,-71.15228,109S14 ¬∑ The Strathmore 14 w/AC | Queen Bed w/HdTV | One block to Greenline and walk to Boston College!
106384,40.62434226701885,-73.95669765181779,Privet House - Midwood/Flatbush Recently Remodeled
170123,30.40883,-97.68508,Luxury & Cozy Duplex A sweet Home.
58788,34.03758,-118.8688,A Step Above
89715,40.71581,-73.94537,Modern 1 Bedroom Apt with Office in Williamsburg
9927,38.9116,-77.00846,‚òÖ‚òÖ‚òÖSpacious home for big groups‚òÖ‚òÖ‚òÖ
103086,40.75867,-73.91116,Upscale holiday rental in Astoria
116024,37.2858,-121.95837,Tiny House @ the Funky Farm
183217,47.61503,-122.3475,"Five Star Downtown Designer Urban Suite, Space Needle View"
127048,41.88725,-71.37656,SIX Bedrooms/8 beds Loft/EV Charger/Fast Internet
28904,34.15012,-118.23513,Spacious Downtown Glendale Luxury Apartment
50708,34.19569,-118.4381,Valley Glam Studio (Newly Remodeled) - Los Angeles
134237,32.77473,-117.25176,Luxurious Condo w/ Outdoor Dining & Ocean Views
6643,37.79026341373656,-122.41334238393648,CW Canterbury Resort | 3BR/2BA King Bed Pres Suite
162310,41.93028,-87.6994,Bright & Spacious 4BR Home in Heart of Logan Sq!
202527,26.24166,-80.08827,2 Bedroom Condo at Sea Garden Resort in Pompano
24845,34.04943,-118.30083,Home Sweet Home (LA's K-Town)  ÂÆ∂
157710,41.93925476074219,-87.68231964111328,Beautiful Apartment Just Steps to Great Live Music Venues and World Famous Chicago Nightlife
135367,32.76364,-117.25002,Bayfront Beach Condo on Boardwalk + King Master
139952,32.6354,-117.07768,~ Cozy Home w/ Free Parking on-site ~
179786,45.50114,-122.64611,The Clinton Modern
67771,40.68759,-73.99754,5 Bdrm Historic Brownstone Triplex
122685,39.96481,-82.98381,Luxury modern 1BR close to Children‚Äôs Hospital!
125450,41.32847,-71.84341,"WH Avondale Beach House cul de sac, walk to water!"
174918,30.36753,-97.91417,"Waterfront Lake Home, Private Beach, 2-Story Dock"
128870,32.81666,-117.27062,LA JOLLA FAMILY HOME !  ~ w/Playground & Jacuzzi
115930,37.31908,-121.94368,Cozy Guesthouse-Walk to Santana Row-Tesla Charger
195703,26.01532,-80.11636,Ocean View Balcony‚Äì Rooftop Pool & Hot Tub+ Gym
110805,37.3959549,-121.9440257,"Santa Clara 1br w/ gym, pool & w/d, nr tech HQs"
55044,33.98196,-118.46668,Remodeled Beach Cottage on Serene Venice Canals
181890,45.55708,-122.66786,"Excellent Location, Pet Friendly, Fenced Yard"
217607,36.05646,-115.2296,#60 Cheerful 5BD House 8 Min to Strip Pool Table
136867,32.84015,-117.27228,Pearl 1 Cottage - La Jolla Village All sanitized
187425,47.59061,-122.38257,Private 2-Bedroom Escape w/Stunning Views
108575,40.75262,-73.9725,Manhattan July 4th studio 7 nights
151827,39.76451,-105.04278,Home away from Home! Longer stays! West Highlands
100952,40.84591,-73.93776,Apartment so lovely in New York
224279,36.13441,-115.1511,Luxury Las Vegas Trip
40652,34.15062,-118.34535,Mansion living. Lifestyle upgrade
165917,30.25012,-97.76869,Modern 3 Level Apt in Perfect Location
183450,47.60121,-122.30724,Modern and cozy home in Seattle
12776,38.88864,-76.97632,Chic Rowhouse Across Metro
20959,29.95367,-90.04841,River View Luxury & Ferry to FQ
163634,41.97613659330588,-87.66383284072266,"Charming 3BD w Dining Room, Full Kitchen, 3 Queen!"
104665,40.63139,-73.94556,New Modern 3 BR Duplex w/ 3PM Self Check-in
24924,34.16418,-118.11335,Designer home close to Old Town
208376,26.31885,-80.07763,Enjoy Deerfield Beach! Charming Apartment
204656,26.05734,-80.13452,Clean and Contemporary in Sunny Dania Beach!
66511,34.05884,-118.38523,Large Hotel Suite with walk in closet
194807,25.963049668186304,-80.31187943168936,Resort Van Life Parking
47851,34.06642,-118.29385,Premium Peaceful 1 bedroom - balcony & fireplace
96989,40.89154,-73.84316,Cozy Oasis in Wakefield
206722,25.98567,-80.13658,AMAZING VIEW! 1 Bedroom at Beachwalk Resort #2109A
21083,29.95977,-90.0134,"""Cozy Saint Claude"" Remodeled Apt 2 bedroom"
174145,30.22523,-97.72078,Modern Apartment in Prime Location (ID9196X09)
159671,41.97798,-87.68467,Private Coach house near Lincoln Square!
172704,30.18646,-97.82064,Adorable South Austin private 1-bedroom guesthouse
11436,38.89072,-76.99696,Modern & Cozy Apt a Block Away from U.S Capitol
43974,33.974,-118.43177,Top Floor 1BR w/ High Speed Wifi
223011,36.12528836247811,-115.32840784639122,Summerlin Prime Location
132446,32.85812,-117.25543,Bluewater Summer Sea at La Jolla Shores beach!
66445,34.08521,-118.35138,StayInLA | Private Rental 4C
194348,25.98993,-80.11742,Lovely 1 bedroom unit w/ Pool
30177,34.14676,-118.25611,SPACIOUS STUDIO:WALK TO PLENTY OF DINING &SHOPPING
129179,32.701969,-117.140701,Casita Barrio-3 Bedroom/Conveniently Located
171625,30.36798,-97.94722,2 bedroom cabin near the Lake with private hottub.
195322,26.18789,-80.13989,!! Modern & Stylish Fort Lauderdale Getaway !!
198350,25.99029,-80.11908,Beautiful Apartment 2 Bedrooms | Hollywood Beach | with Balcony!
134038,32.78656,-117.25291,Outdoor Patio + Steps to Water + Dogs OK
126982,41.49124,-71.31975,CW Long Wharf Resort | 1BR/1BA Double Bed Deluxe
167838,30.20997,-97.81094,"Entire home in ATX, minutes to downtown"
16575,40.724163,-74.046257,Charming 2-bedroom in the heart of Jersey City
228060,42.365947,-71.063473,"N. Station 1BR w/ W/D & Gym, nr TD Garden"
202896,26.16291,-80.14506,"Book Now! 10 mins to Beach, Heated Pool, Sleeps 8"
165280,30.29936,-97.78114,Amazing Lake Austin Waterfront view
178825,45.56938,-122.62927,The Green Door Garden Cottage
3145,37.76202,-122.39803,"Stunning, sunny 4BR home ‚Äì Near everything"
109515,40.71660223020207,-73.96264662476977,Brooklyn Warehouse
65131,34.04054,-118.25768,"Loft Style, Spacious DTLA - One Bedroom Condo"
67297,40.72648,-73.98712,‚òÜ 2BR East Village ‚òÜ Sleeps 5 | BEST LOCATION ‚òÜ
129808,32.7524969,-117.1515548,Peterson Retreat in the Heart of San Diego
223630,35.1622,-114.57191,"Rare Find! 2 Spacious Units! Pool, Parking"
4460,37.790598,-122.410225,"Nob Hill 1BR w/ Sauna, Gym, Stunning City View"
215783,36.11531,-115.19958,1250Sqft 30th Floor corner with Amazing Views!
99550,40.6641821,-73.9129914,Luxury Apartment in Central Brooklyn
191388,45.06118,-93.14423,129 Urban Oasis in Shoreview 1bd/1ba Home
57744,33.9034,-118.33717,"EVENT CENTER ,SMALL EVENTS POP UP SHOPS, DAY EVENT"
13553,37.84095,-122.24822,Rockridge Cottage: Rustic Elegance
199714,26.02491,-80.11615,New Beachfront 1 BR Condo-Steps 2 Beach (5)
129067,32.81988,-117.22895,La Jolla Dream Villa
217287,36.10833,-115.27586,"Excellent condo, 4 miles from the strip (LV18M)"
105636,40.6515175,-73.92610909999999,Short-Term Stay
54956,34.15783,-118.38846,"Beautiful, relaxing Oasis in LA."
153030,39.75646,-105.00305,Kasa | Enjoy Local Bars & Restaurants | Denver
104587,40.714676,-73.9366136,Beautiful Brooklyn railroad
213067,36.1845,-115.26782,"Joes quiet, comfortable condo in Summerlin."
149061,36.1752,-86.75703,1mile2DT | Rooftop Deck | Wi-Fi | Walkable | NEW
229856,37.64252,-122.46716,Cozy Coastal Cottage (Entire Place in Pacifica)
68155,40.74299,-73.99595,Large Comfortable Studio in Chelsea
130603,32.74148,-117.16334,Home Away from Home
230148,37.43802,-122.21396,Near Stanford  U--- 3 bedroom nice environment
87161,40.79642,-73.94373,Beautiful and spacious studio in East Harlem
200892,25.98509,-80.12173,Sunny 1BR 1BTH Balcony|Pool|Kitchen|King Bed
28660,33.96894,-118.42785,Stunning Ocean Beachfront near Santa Monica/Venice
61505,34.12484,-118.40255,Coldwater Canyon Spanish Villa w/ Views
94364,40.7258,-73.95422,Gorgeous Sunny Greenpoint Long Term rental
114135,37.395325155096096,-122.09914971016696,1970#4 - Private Suite w/ Bath near MTV Downtown
161462,41.85378,-87.62364,McCormick Pl Stylish corner unit/parking/sleeps 6
174648,30.14302,-97.71555,Cozy Casita Airport-Accessible w/ Modern Amenities
23686,29.93096,-90.07528,"Sunny duplex with patio, golf nearby, central AC, & washer/dryer"
231237,37.58548,-122.34925,Cozy private 2b/1ba near SFO & Downtown Burlingame
197065,26.19566,-80.12992,"Entire Luxury Junior Suite, 8 min from the Beach"
116817,37.3405647277832,-121.95722198486328,3B/2.5B + Open Plan / Large Office / Huge Backyard
97092,40.66734,-73.92178,"""TRIPLEX ON THE PARKWAY""-4 Min walk to subway"
199906,25.98661,-80.12177,404 Hyde Beach House Luxury Residence
2923,37.79855,-122.41562,Charming Macondray Lane Flat
208882,26.22718,-80.15861,**Great 2 bedroom condo in Palm Aire**
137710,32.79453,-117.23177,Surf Studio!
1769,37.73133,-122.38639,modern Family home w/ private garage & garden
131989,32.74752,-117.24781,Private House & Yard w/AC - 2.5 Blocks to Beach!
54003,33.99243,-118.46649,Venice Retreat
116329,37.3418808,-121.9827603,"Santa Clara 2BR w/ Pool & Spa, nr Park, Shopping"
39582,33.91317,-118.36355,"Cozy, Airy Bungalow + Patio by Beaches, LAX, SOFI"
164357,30.25408,-97.72073,Treehouse Apt. Cute Converted Attic -Deck-Comfy!
101798,40.72947,-74.00587,"Charming West Village Apartment 1 Bed, 1 Bath"
222290,36.10678,-115.11246,Wyndham Grand Desert | 2BR/2BA King Bed Suite
224569,36.10413,-115.12711,"Paris Villa: Pool, Spa, Sauna, Theatre, Near STRIP"
52217,34.10263,-118.34631,Bright Hollywood One Bedroom-Fully Furnished
172916,30.1595,-97.83872,Cheerfull 4bedroom 2.5 bath located in Austin
130804,32.708405729937915,-117.15076903217512,Epic Steps from Gaslamp Quarter
136008,32.71324,-117.15514,#21 Downtown renovated studio at 830 Park
172825,30.23738,-97.72244,"Modern, Clean 2B w/Comfy Queen Beds, Gym,Fast WiFi"
49459,33.76208,-118.1168,Marina Basecamp
161367,41.90851,-87.63367,Lovely 4 Bedroom Spot located in Charming Old Town
173735,30.29398,-97.73432,107 Studio near Downtown|SXSW|UniversityofTX
174100,30.25754,-97.75424,South Austin 2 Bedroom Home With Hot Tub & Pool
26306,34.0899,-118.123,Mid-Century Inspired Townhome3 in Central Alhambra
1885,37.73354,-122.4228,Cool Creative Apartment with Spectacular Outside Living Room
157974,41.93422,-87.64419,"Stylish 1BR Apt, in Lakeview.  Perfect for Getaway"
76981,40.80453,-73.96415,1 bedroom apartment in Morningside Heights!
166425,30.2202,-97.73908,"3BR/2.5BA Home 7 Mins from DT, Airport, & SoCo"
105224,40.7511,-73.99785,Luxury Studio Apartment With Lovely Manhattan View
166365,30.35388,-97.72693,3 bedroom 1 bath 1600 sqft  cozy home Central ATX.
159246,41.99732,-87.66869,"Cozy, Corner Home, Great for Families with Kids!"
196890,26.01609,-80.11645,Amazing Hollywood Beach Studio
148286,36.1548886,-86.77541389999999,Southwest style in downtown Nash
40844,34.10999,-118.22587,Glassell Park Hills Studio
185824,47.61076,-122.32182,The Shire
35921,34.09894,-118.33862,"The heart of Hollywood, Studio"
62808,34.1481554,-118.1129943,Entire 3-BDRM Condo with Parking in Prime Pasadena
227580,42.3672,-71.05702,"ACeltics/Bruins, Little Italy, North End"
148704,36.15112,-86.80774,CozySuites Luxurious Midtown Condo 12
192121,44.90258,-93.21219,"Bright Mpls Getaway, 2 Mi to Minnehaha Falls!"
137229,32.7575,-117.17762,Gorgeous Mission Valley Condo - One month minimum
227558,42.28784,-71.06787,üéñThe Ashmont Suite | Close to Subway + Downtownüéñ
45800,34.01315,-118.42086,Roomy 1-bed apt-quiet st. & neighbrhd near 2 beach
151907,39.76106,-104.94438,Slow Season: Huge Discount 2Bdrm City Park Denver!
89367,40.68384,-73.96643,GIANT Brooklyn loft for true NY experience
217893,36.02664,-115.16733,Superhost Monthly Rental 5 Bedroom House U021
142998,36.18656,-86.792,Luxury Retreat *1.5 Miles to Broadway* Sleeps 12+
123196,41.49139,-71.37388,5 min walk to the beach - Jamestown
157753,41.8989,-87.68397,Vintage Ukrainian Village Apartment
139636,32.75893,-117.17897,*Sanitized* OSASIS RETREAT 1BR Apt W/PARKING
181953,45.45902,-122.57087,"Happy Valley Home A+hot tub, Game Room, 8 beds!"
126554,41.80807,-71.42184,The East Loft at Dartmouth Avenue *New 1-Bed Apt.
139345,32.79145,-117.17924,King Suite!  Free Parking and Fast Wi-Fi!
26095,34.119102293343005,-118.34989939791784,Celeb Favorite Mulholland Estate (360 views)
74299,40.71832,-73.99863,145 Mulberry-1 bedroom in Little Italy
66400,34.04984,-118.24838,Luxury Condo With Private Balcony in Downtown LA
49942,33.77505,-118.17163,Historic & Charming Apartment near Retro Row
223048,36.07273,-115.28107,Luxurious 2 Bed 2 Bath 10 min from RedRock & STRIP
184408,47.61371,-122.30957,Cozy Townhome in Capitol Hill
129015,32.74962,-117.15274,Stylish updated 2 Bed/2Bath condo Prime Location!
74998,40.68102,-73.91096,"Perfect Private Garden Apartment, 2 blox to subway"
79477,40.67201,-73.97322,Fits like a glove
177379,30.26347543260245,-97.70916578023667,East Austin Home w/ Backyard & Standing Desks
174379,30.2759,-97.82229,Newly Renovated Barton Springs Home with Pool
214477,36.09632,-115.13229,(¬∞ Õú ñ ¬∞)- 2BD-2BA~WFH Remodeled&New
216960,36.16936,-115.04497,"Modern, bright and centric  guesthouse-Remodel."
206188,26.0084708,-80.1176681,Lovely Studio Walking Distance To Ocean - Suite 7
163861,41.8925035,-87.61628259999999,"Streeterville Studio w/ pool & gym, nr Navy Pier"
73382,40.6884,-73.97248,Renovated sunny studio
101723,40.64931,-73.95256,Lovely one bedroom apartment with private patio
50838,34.03617,-118.34753,LA‚Äôs finest/Central Location to everywhere in LA
58360,34.05178,-118.33519,"Beneath the Palms | Sunny 2-Bedroom, Mid City LA"
125553,41.52369,-71.28627,Central Getaway So You Can Play
63457,34.04482,-118.2499,Laidback Spot 4U & UR Crew‚Ä¶
66123,34.02552,-118.36,Studio in the Heart of LA
208416,26.21613,-80.09681,Beach house with pool/private beach access.
14194,37.77729,-122.17838,Amazing Large Studio Near Mills College
35488,33.93944,-118.36378,Cozy 2 bedroom 1 bathroom house.
206127,26.1067326,-80.1464316,Tilah Stays | Near nightlife and beach
100028,40.7364632,-73.9021099,Jessie's Dream Catcher
14388,37.85057,-122.25988,Rockridge Urban Retreat
182857,45.50562623898799,-122.6530231790166,Mid Mod Private Suite in PDX
102691,40.71639,-73.99404,Apartment in Manhattan | Chinatown - 1 Bedroom
116135,37.32083,-121.98443,2/2 SJC & Santa Clara Spacious Corporate Rental
128664,32.73864,-117.24686,Ocean Beach Close to all
186455,47.52546,-122.3205,South Park Artist Bungalow in the Tree Tops
99966,40.7829214783294,-73.97784523665905,Lovely 1 bedroom condo with Patio. CPW 5mins.
61542,34.1097,-118.36068,Private Gated Nichols Canyon Villa w/ Pool
31489,34.08219,-118.37327,Luxury 3 bedroom condo heart of Weho
161023,41.773773,-87.596397,Spacious 3 bedroom/2 bath with parking
4806,37.7801318349501,-122.43459625781674,Cute 1BR in central Alamo Square Historic District
196532,25.98705,-80.11821,Beach paradise. Just minutes to restaurants shops.
169743,30.23017,-97.69583,Casita Bonita - East Austin Oasis
186549,47.67162,-122.37797,Ballard Birdhouse - 93 Walking Score/Garage/AC/Gym
13705,37.7565,-122.16139,"Spacious, bright and cozy home."
190853,44.85996,-93.2543,Remodeld 2 BR 2 BA Townhome 5 min to Airport/Mall
199694,26.16533,-80.10031,Florida Beach House
175157,30.46027,-97.81625,"Austin Oasis w/ Pool, Patio, Firepit"
194318,26.01041,-80.17368,*Hollywood Vibes* Centrally located house w/Pool
215801,36.11903,-115.16417,SUPERB 2 BR | 2 BLKS FROM STRIP | FREE WIFI | POOL
19853,29.98016,-90.07003,Perfect 3br/2ba double < 2 miles from the Quarter
204744,26.26397,-80.19286,Delightful vacation rv/camper with pool/patio
107891,40.72028338937557,-73.9891497796475,Group Vacay Destination! 4 Modern Luxury Units!
151838,39.73565,-104.95872,Spacious 1st flr private apt-central vibrant nbd!
206966,25.99028,-80.14696,Great Studio in Hallandale Beach 8 mins to beach
225969,42.3654,-71.03949,Cozy Studio in East Boston 2120
127162,41.4958,-71.2838,"Cozy, Cherished Home"
175722,30.3257382,-97.7153166,"Central Austin 2br w/ gym, pool & w/d, nr cafe"
173686,30.22718,-97.70907,Adorable1BD|Gym+Office|FreeParking|6Min to Dwntown
164276,30.34042,-97.7463,Cozy Allendale Apartment Hideaway
117420,35.57886,-82.59055,"Walk to AVLs TOP cafes, pubs, restaurants, rafting"
86577,40.69668,-73.97532,Artist Loft/photography/design studio
183069,45.46951939860907,-122.65144133123714,Sellwood Suite near Reed College: Great Location!
158919,41.93581,-87.69573,Casita Rosalinda -  3BR/2BA Chicago Home
139288,32.74801,-117.22023,Beautiful Home in Sunny Point Loma
178536,45.50857,-122.64463,"Pretty house, perfect location, EV-friendly"
29186,34.08848,-118.24958,Tranquil Hideaway in Echo Park
170221,30.25709,-97.73583,The Gala of Lady Bird Lake - Chic East Austin home
96070,40.78281,-73.98377,Large 1 Bedroom Apt in Charming UWS Townhouse
21678,29.96521,-90.0726,Treme Masterpiece with Private Yard Close to FQ!
157052,41.89548,-87.62756,Stylish Gold Coast One Bedroom
115353,37.31517,-121.93869,"Light-Filled Condo near Santana Row - Parking, W/D"
151452,39.73672,-105.00333,"Walk to Downtown, Breweries, Meow Wolf & More!"
38889,34.03699,-118.36755,"The Casita: Private Garden Patio, Fire Pit"
7620,38.93691,-77.02602,Luxury 1 bd Apartment on the Metro
164066,30.29961,-97.73449,Elegant Upper Level Home Apartment Minutes from Downtown
176313,30.22541,-97.69726,Spacious| Downtown Austin| Pet Friendly| Fire pit
7991,38.91075,-77.08822,Georgetown/ palisades 1 bedroom Apt
221627,36.10815,-115.11277,Grand Desert 1 Bedroom
39226,34.05085,-118.42734,Peaceful Retreat ~ Private Suite Westwood UCLA
42500,33.90143548882212,-118.42077636598016,One bd/1ba 30 second walk to sand w/parking!
46657,34.02712,-118.50077,725-15 Bright 1-bedroom North of Montana Ave.!
179021,45.57073,-122.65774,Cute*Cozy*Clean NE Studio
43973,34.12133,-118.00505,Comfy COZY 3 Beds 2 Bath Home/ Spacious large yard
12376,38.91033,-76.9832,3 level 3bdrm 2kch home 4.5 bthrm 3free parkn spac
193518,44.91339,-93.31216,Harriet's Haven- Charming home with cozy fireplace
20584,29.95717,-90.12988,Hausfuhr-Steyn Inn
2810,37.77642,-122.44912,"Walk to Bus, NOPA, Haight,Grocery Store, Cafe"
200481,25.98857,-80.11775,The most amazing ocean view
156024,39.73654541573811,-105.036893769009,1BR Private Suite with Kitchen
109765,42.37464,-71.10695,Bright Loft-Walk to Harvard
81603,40.74908,-73.89389,‚òÜNew renovated apartment in Jackson Heights‚òÜ
198423,26.02133,-80.1685,Cozy 2 Bedroom RV/Camper *Delivered to You!*
76176,40.78419,-73.97152,"CLASSIC NEW YORK! Heart of UWS!
CLEAN. BRIGHT. NEW"
35403,34.09094698161295,-118.347517045364,Spacious Studio Pool/Jacuzzi
108247,40.77243,-73.99166,Amazing view & best amenities
36043,33.752716602219216,-118.1193790303334,Naples Island Waterfront Beach House
66634,34.10561,-118.13352,"Private entrance close to downtown LA, Pasadena"
136793,33.04004650463964,-117.08252941335736,NEW! Spacious San Diego House w/ Yard + Patio!
218962,36.1114,-115.17378,"The Jockey Club 1br full kitchen, Friday check-in"
209076,26.13059,-80.1048,Minute from the beach # 6
177069,30.2311638,-97.7191203,One bedroom luxury apartment.
44010,33.766773,-118.182388,1 Bedroom and Den Luxury Condo
193846,44.9353865,-93.28864380000002,Colorful Art House by the Lakes & Uptown
63619,34.18003,-118.12352,Private Backyard Studio in Altadena
43807,34.09727,-118.22088,Nice View! Modern 3 Bedroom 2 Bath Home
66312,34.08899,-118.24415,Echo Park private cabin best area
10016,38.9572,-77.08976,AU Park/Little House
200734,26.18983,-80.09892,Sea Star Suites By The Sea #2 Steps 2 Beach & Pubs
168569,30.29492,-97.71505,Charming Blue Duplex
219627,36.12093,-115.21443,3 Mile to strip close to everything sleep 8
228232,42.37856,-71.03666,Entire One Bedroom Condo with Private Roofdeck
144512,36.15522,-86.77546,Modern Studio at Wyndham Margaritaville Nashville!
199598,26.25332,-80.08827,Comfy corner condo step to the beach! Sale 30% Off
83476,40.7231,-73.9899,Sustainable Event Venue in LES
128481,32.70055,-117.13589,Barand new 2 bedroom apartment!
186874,47.68826,-122.32606,Resort Style Home with Exceptional Amenities
105720,40.76321,-73.97629,"Spacious Boutique Studio Apt, 24/7 Onsite team"
83975,40.67379,-73.87445,Cozy Garden Level Apartment in Brooklyn
55483,34.00805115927896,-118.28750329076796,Bright Modern Apartment near USC
127963,32.8399162,-117.2688233,"La Jolla Luxury Home w/ AC, Patio, Ocean Views #1"
153280,39.7553,-104.99173,"LoDo 1BR w/ Gym, Pool, W/D, 1 block to Coors Field"
175863,30.26473,-97.70929,Hip East Austin Home on Corner Lot - Benson
55767,33.90734,-118.35458,NEW! Centrally Located LA Studio ~ 4 Mi to Beach!
118482,35.59628,-82.488,Carpe Soli Farm‚Äî10min to downtown
92216,40.76474,-73.87659,Cozy 2 bedroom 5min LGA/15min JFK  on main floor
151183,39.73249,-104.97089,"LARGE studio in historic, central Cap Hill"
122146,39.96448,-82.98417,Luxury modern 1BR close to Children‚Äôs Hospital!
95985,40.72883,-73.86942,"Regal Studio Apt W Parking, Terrace & Washer/Dryer"
179255,45.54327,-122.65505,‚ú¶ Luxe-Glam Garden Cottage in  Central PDX ‚ú¶
186164,47.65662,-122.34685,Serene View in Wallingford 5 min downtown (303)
66371,34.15234,-118.25416,Spacious 2BDR & 2BTH in The Heart of Glendale!
184913,47.67203,-122.33522,Spacious modern studio one block from Green Lake
100431,40.76883,-73.95285,Sunny 2 Beds in the Upper East Side.
87703,40.68068,-73.93623,Fully Renovated in the heart of Stuyvesant heights
119092,35.644,-82.50993,Desirable North Asheville
160623,41.8849796,-87.6611185,"W. Loop 1BR w/ Gym, Pool & Lounge, 2 blocks from L"
56431,34.09623,-118.33347,Location! Hollywood Apartment -Sunset Blvd
158284,42.01375,-87.68298,Spacious condo with open floor plan and fireplace
63261,34.63157,-118.18538,"Beautuful house for 4 ,west palmdade"
170283,30.29993,-97.70008,kid-friendly home in a central family neighborhood
198844,26.12168,-80.1039,"Marriott Beach Place Towers 2 bdrm Mar 11-18, 2023"
208185,26.153263,-80.123034,New Listing! Beautiful Comfy Home with Private Hot Tub Close to Beach
22864,29.96068,-90.07809,Sunny home walking distance to Quarter and Dome.
48706,34.08899,-118.27961,Hollywood/Silverlake 1 Bed Room
104886,40.63096968329005,-73.90290004519957,Canarsie‚Äôs Elegant City Escape
204842,26.0510443,-80.11343629999999,New ! Waves On Walnut # 3
15466,37.8327,-122.2528,Cozy studio apartment near Piedmont Ave.
132646,32.743704264647995,-117.12432573163235,North Park close to restaurants and bars
29427,34.1008,-118.59308,"Lovestream Romantic Nature Getaway in Topanga, CA"
206057,26.1039,-80.13597,Relax at our Garden üåû‚õ±üå∫üå¥view 6 @ the Bell üîî
150538,36.93535,-121.86194,Beautiful La Selva Beach Gateway
140400,32.84784,-117.2736,Ocean Waves -La Jolla  Contemporary
118911,35.63255,-82.62893,Asheville Tumbleweed Tiny on the Farm
220842,36.10697,-115.1655,MGM 30814 1BR Signature with Balcony
58694,34.14738,-118.25198,Apartment in Downtown Glendale
170523,30.26832,-97.68284,East side oasis with incredible backyard and pool!
113306,37.1238,-121.70686,Morgan Hill Majestic Mountain Camp
149628,36.95504,-121.97633,Sea Forever on East Cliff
150792,39.76672,-104.97906,Lodo / RiNo LOFT  via airport train
49694,34.10485,-118.34287,Spacious Historic Prime Hollywood Apartment
192748,44.91108,-93.7531,Incredible views! Sunsets & Bird lovers paradise
231800,37.6551683,-122.4610323,(Great 3 Beds and 3 Baths Unit)
137326,32.75775,-117.11063,"#1 Listing! Excellent Price, Location & Amenities"
112641,37.4498127030982,-122.163055696731,Farmhouse loft in downtown Palo Alto
211868,36.03361,-115.17317,LasVegas - Boulevard 1 Bdrm Condo Resort
44027,33.76049390194707,-118.15416629352568,Ocean Boulevard Beachfront Home
134508,32.7277,-117.16597,"Spacious, Modern Suite w/King Mstr + SofaBed"
193157,44.96397,-93.2617,Clean 2nd floor 4 bedroom Near Downtown [7-10]
85656,40.71787,-73.94262,‚òï Home-y Apartment on Quiet Street w/ French Press
69788,40.79292,-73.97089,Beautiful one bedroom apt 850 sqf!!
116009,37.28464,-121.94441,Farmhouse style home next to Downtown Campbell
131578,32.75114,-117.24805,Pooch-friendly near dog beach!
78792,40.73958,-73.99876,Perfect Manhattan Studio Apartment - Quiet Street
91940,40.74645,-73.9887,Superb Location Midtown Sutudio
31875,34.16918,-118.44459,Bright Bungalow with all the comforts of home!
185584,47.53347092596047,-122.28068868366611,Comfy & Modern 3br/3.5ba Townhome near Light Rail!
59612,34.09392,-118.39238,Coveted St Ives Drive - Bird Streets Home
197636,26.2130231,-80.11707919999999,Dream Waterfront Pool Home Close to the Beach!
111275,37.24653,-121.82725,Silicon Valley San Jose Private studio
73593,40.70808,-73.74692,Quiet neighborhood in queens.
186639,47.54825,-122.25871,"Parkside Seattle - Spacious, welcoming studio apt."
50191,34.14133,-118.40982,Magical Hill House south of Ventura Boulevard
79798,40.75233,-73.97328,Wyndham Midtown 45 NYC (1 Bedroom Presidential)
63084,34.05852,-118.39246,"Lovely, Kosher apt in Beverly Hills"
92238,40.86518,-73.846,Chic Ground Floor Studio in Pelham Gardens
175617,30.3918785,-97.7021504,Austin home near the Domain
101822,40.85282,-73.9003,Splendid Entire Apartment
127657,41.80365,-71.43785,Entire Comfy 3B1B unit in center
91695,40.80694,-73.94709,Queen studio Suite
154087,39.75021,-104.97588,Sophisticated and chic 2 Bed/2Bath Townhouse!
167470,30.40385,-97.74301,North Austin luxury apartment
227520,42.34344,-71.10094,Sonder at Pierce Boston | One-Bedroom Apartment
80583,40.82207,-73.95492,River View
63145,34.07405,-118.38808,NEW YORK STYLE APT in HIGHRISE
133434,32.74078,-117.25195,Modern Ocean View Second Floor Beach House
210347,26.00972,-80.11813,Lovely 1 bedroom steps from the beach / boardwalk
230801,37.63785,-122.49339,@ Marbella Lane - Oceanfront w/unobstructed views!
5706,37.79111,-122.42954,The Addison by Kasa | Classic Queen Studio
12888,38.9339731,-77.02519439999999,Cozy Basement Apt Steps to Metro
140254,32.85644,-117.19228,Two bdrm condo UCSD/LaJolla/Miramar base-own exit
121304,39.964275,-82.99778,The Elegant Urban Flat‚ÄîDOWNTOWN/ARENA/CONV CENTER
197638,26.17053,-80.14764,Inspiring Art Retreat -  3 Mi to Lauderdale Beach!
119075,35.59269,-82.59238,Simple and clean historic gem Asheville
117280,35.54661,-82.4924,Cozy Cottage by a Little Mountain Stream and Pond
177815,30.32940353815106,-97.74686396291442,"Luxe Retreat, Private Pool, Modern Designer Style"
119705,35.47485,-82.50426,Spacious Home Minutes to Downtown AVL and Biltmore
82269,40.705579,-74.008378,"FiDi Studio w/ Gym, Roofdeck & Speakeasy"
61257,34.17783,-118.57222,LUXURY VILLA IN THE HILLS W BIG POOL & CITY VIEW
13171,38.90208133306896,-76.98082973396876,"Casa Cam - Washington, DC Bed & Breakfast"
157622,41.821701,-87.606926,Beautiful Loft space in Bronzeville
191919,45.56071,-93.28445,Flower Farm RV Glamping
192348,44.89386,-93.40806,Furnished walkout apartment! With all utilities!
25895,34.15681,-118.34907,"Burbank 1BR w/ W/D, Gym & Pool, nr TJ & WF"
225362,42.34274,-71.07832,Beautiful brown stone in South End
176067,30.2943548,-97.7431556,Near UT and Downtown Convenient and Affordable
1151,37.79581,-122.40842,Retro-vibe Chinatown condo with SF skyline views
43857,33.85813,-118.39369,Hermosa Beach Hideaway
119587,35.5931,-82.55268,Updated 1BR | Deck | W/D | Central AC
11372,38.89627,-76.99414,Fabulous Location! 3 Bed 3.5 Bath Capitol Hill Rowhome
69602,40.68397,-73.93911,Child-friendly 2BR w/ Yard access and Free Parking
230901,37.63044,-122.41258,Relaxing Gateway to The Bay - 2B/1BA/Parking W/D
70874,40.71366,-73.96616,3BR Williamsburg Duplex w/Backyard
142092,36.22039,-86.70483,Wyndham Nashville- 2 bedroom lockoff
228062,42.33599,-71.04715,Loft Penthouse Steps Off Broadway!
129455,32.79905,-117.23078,Charming Bungalow near the beach in Pacific Beach!
35832,34.18476,-118.39427,Modern Home near NoHo West. Prime location!
137323,32.81118,-117.25185,San Diego Vista
99913,40.74728,-73.97811,500 sqft/46 sqm studio by Grand Central
196951,25.98553,-80.12198,Enjoy a Luxury new 3Bdr Condo at Beachwalk -March
16331,40.74744,-74.05668,Beautiful 3 BR Jersey Heights close to NYC!
134733,32.7526,-117.24818,#2 Beachside! Glamorous camping! 2nd lot to beach!
58162,34.05719,-118.46632,Super Cozy Studio
89616,40.63646,-73.93535,"The Eden House , 2 Beautiful bedrooms house."
72570,40.65046,-73.97474,Yogi's Luxury on Prospect Park
86298,40.78564,-73.97041,2 Bedroom Apt in heart of the Upper West Side
206572,26.17723,-80.1502,4010 Newly remodeled 2 bedroom close to the beach
71748,40.69011,-73.98053,Luxury studio in Brooklyn
119205,35.50359,-82.61172,Trails End Retreat in Asheville
23784,29.973102571670925,-90.106739887539,N E W! Midcity Dream Nights!
125621,41.35149,-71.70431,Carriage House Near the Sea
103641,40.73693495877653,-73.9808733571472,Lovely singular bedroom fully serviced apartment
31884,34.20815,-118.14017,MidCentury Modern Secluded Mountain Home
218455,36.10162,-115.11411,Loft-style living in this 2 story townhouse
39573,34.05584,-118.42504,T206- Sunny and Modern 3 Bed 2 Bath + 2 park spots
59486,34.10076,-118.10885,3bedroom in San Gabriel -Brand new apartment-
154600,39.729,-104.97464,Beautiful Historical Home in the Heart of Denver
168150,30.26384,-97.7452,Trendy Industrial Apt in the Heart of DT
215405,36.18834,-115.25936,The Contemporary Vacation Place!
211770,36.11525,-115.19576,Modern Palms Place Hi-Rise Suite w/ Mountain View
36969,34.21218,-118.34432,Peaceful & Spacious 2 br/2bath Villa with pools
146523,36.09329,-86.71801,The Catherine Cottage - Charming Home with Pool
183763,47.66175,-122.31304,Center UW Cozy & Updated (112)
145930,36.15453,-86.77587,Spacious Condo* MINS to BROADWAYy* 6 PPL*Fast Wifi
61933,34.05671,-118.35321,"Bright Top Floor 1BD/1BA with Gym,BBQ,Pool, BBQ!"
169657,30.21452,-97.81138,"4bd/ 3bth home, 10 ppl, 5mi to Airpt, 5mi to Dt"
228462,42.27013,-71.10741,Cozy Boston home for large group
12986,38.950838179126336,-77.01630995668899,@HostelChic*Private Bath*A Suite Life
11399,38.95453,-77.01182,üèòÔ∏è‚ù§Ô∏èTurnkey Happiness in Washington DC/Petworthüîë
135137,32.76117,-117.24918,2 Bedroom Beach Home - South Mission Beach
166121,30.29017,-97.72153,Quiet Cul de Sac in Cherrywood
118718,35.55849,-82.6039,Bear Me the Necessities
40223,34.1128,-118.27763,Los Feliz / Silverlake Perfection
185834,47.62699,-122.32611,Private Room in Stunning Capitol Hill Condo
48340,34.0043,-118.33647,Classic Spanish Art Deco House with Stunning Views
178138,30.24349722027056,-97.76497671159612,Casita Tropical
198888,26.00961,-80.11793,Spacious Grand Beachside Townhome in Hollywood
85984,40.68302,-73.96548,Sunny Brown Stone Apartment
210495,26.18603,-80.13803,Vacation home 10 mins from Lauderdale by the sea
138,37.74584,-122.42412,Gorgeous 1BR - heart of Noe Valley
61673,34.0814034,-118.3001429,Promo Ends 2day 20% Off! February Stays Flash Sale
12452,38.9034,-77.00522,Modern NoMa 1BR| W/D | mins from Union Station
208109,26.15029,-80.1224,Luxury lake house blocks from the beach!
208560,26.31608,-80.07648,#204 Beachside 1 BR Apartment with Rooftop Pool!
186204,47.71888,-122.28278,Spacious Cabin /HotTub /Sauna /King Bed
125961,41.71873,-71.28013,3Bd | 2Ba House | W/D | Dine | Walk | Relax
148630,36.14827,-86.86021,Stallion Stable - Rooftop Deck
2264,37.76486,-122.41167,The Urban Loft
72906,40.71828,-73.9957,Captivating rooftop apartment
9341,38.91182,-76.93924,Spacious Home with Massive Yard near DC Downtown
164302,30.27733,-97.80071,SXSW !!!  - Beautiful Westlake/Rollingwood Home
100653,40.72843,-73.96076,Spend a night on a boat for unforgettable memories
123931,41.39245,-71.48042,"Walk to Beach (less than 1 Mile), Newly Renovated"
216025,36.0324,-115.17402,Formula One Grand Prix in Las Vegas 11/13 - 11/20
164436,30.25805,-97.73363,Willow St Wungalow: East Austin
198902,26.17226,-80.14753,Boho summer house
205750,26.11438,-80.14747,Work-friendly duplex 2.  shared hot tub! Near Las Olas Blvd
146677,36.19533,-86.77768,New Lux Home! Great 4 large groups! Big beds!
142045,36.21042,-86.72811,Nashville Home - Luxury Comfort with Fun for Kids
166863,30.22994,-97.77372,Entire Three BR Texas-Modern House in 78704
114496,37.44067,-121.8784,Nicely Remodeled 2BD/1.5BA near Milpitas Foothills
200948,25.98823,-80.11904,Nice Apt on the beach line
101357,40.70261,-73.94134,"2BR w/ Pvt Backyard+Game Room, 3-min walk to train"
164546,30.25950070161384,-97.73072214437006,Modern East Side walkable bungalow with Sauna
120874,39.99188,-82.92913,Terry's Private Rustic Home/ Airport/City & Easton
51271,34.06602478027344,-118.42449188232422,2023 US Open; Stunning View of LACC; Walk to LACC
169756,30.15032,-97.74616,2 Story Home + Loft with Theater 10 min from DT
216610,36.16112,-115.11305,MenloD-Newly Remodeled Gated 2 BR 1 Bath
14927,37.81706,-122.26394,Modern l'Afrique touch Downtown Experience
212350,36.15044,-115.21166,Happy Condo near strip and fast food
11227,38.90946,-77.04496,Iconic | Uncompromised luxury | Historic | DuPont
210555,26.15856,-80.12382,5 Bed Pool House! Wilton Manors!
209601,26.29898,-80.08362,Beautiful 4BR Zen Home-Deerfield Beach- Pool
141777,36.12807,-86.73224,Music Studio Apartment 4mi to downtown
155063,39.719533061746894,-104.99416902699296,Historic Brick Loft steps to S. Broadway
213942,36.10724,-115.30417,Memorial week 7 days
163913,30.26146,-97.77276,Colorful and Quirky Zilker Park Townhouse
151158,39.74271,-104.94538,1 Bdrm Apt in Heart of City Park-7min to Downtown!
43749,34.2089,-118.62124,"Guest suite,separate  entrance, kitchen, bathroom"
203912,26.11511,-80.28157,A Getaway Lakefront House with Pool in Miami Area
197083,25.98683,-80.20437,One bedroom apt in west park with parking.
218760,36.09441,-115.05337,Vegas Oasis with Hot Tub and Pool (Near the Strip)
193129,45.06636,-93.07218,Cottage style 3 bedroom home near the cities.
214193,36.1027,-115.07078,Nice place
204080,26.06232,-80.15164,Good Vibes House with private pool
129507,32.79185,-117.23333,Bayfront Condo w/ Views! Steps to Crown Point Park
92910,40.68428,-73.98753,Rossini's Place - Third Floor Suite
60971,34.19951,-118.41479,Gypsys Landing
160161,41.88666,-87.6263,Modern 3BR Penthouse in the Loop | Roof Deck
26058,34.14198,-118.43467,"LUXURY MANSION North Hollywood  4 bdrs 4,5 bthr"
177107,30.34928920464535,-97.74723101328102,Stylish modern studio close to Downtown and Domain
165632,30.22824,-97.6907,Quiet Eastside Austin Home - 15min to Everything
160227,41.93521,-87.73076,Lovely Garden Studio Apartment.
161413,41.98397,-87.65545,"Edgewater 2BR w/ Gym, Deck & Lounge, 5 blocks to L"
66623,34.67473,-118.09053,‚ÅÇ All-New ‚ÅÇ AC/Heat‚ÅÇW/D‚ÅÇ AC‚ÅÇ Pet Friendly ‚ÅÇ Yard‚ÅÇ
212,37.74033,-122.47144,Charming suite in West Portal area
160861,41.96105,-87.67098,"Spacious 2 Bed Apartment, Perfect Location"
198839,26.15158,-80.12953,Perfect spot between Wilton Manors and the beach
132737,32.73897,-117.16073,"Balboa Park 2 bed,2 bath Condo"
134027,32.7124,-117.15722,Stay in the Heart of the Action - Studio Right Next to Gaslamp District for Your San Diego Trip!
133622,32.7869728,-117.2400996,Spectacular House on the Bay
134121,32.72223,-117.1672,Little Italy/Downtown Tiny Home Cottages
16079,40.71213,-74.07206,Stylish Apt 40 mins from NYC - TV/Laundry/Parking
207782,26.17738,-80.0974,Ocean Manor Studio on the Beach
9387,38.89593,-76.98785,Beautiful Well Located Modern 3BR Unique Home
85351,40.76145,-73.87905,Casa Marie
41162,34.10239,-118.34271,Charming Studio
131116,32.74075,-117.12187,THE PACIFIC DREAM I MODERN PARADISE
215888,36.11706,-115.16284,Super 1 BR | 2 Blks from strip |Fress Wifi | Pool
25827,33.81692,-118.38949,"ONE Block from Beach, Strand, Shops & Restaurants"
85242,40.72194,-73.99418,Absolutely Beautiful Nolita 3 Bedroom Apartment!!
184251,47.67274,-122.37922,Charming Craftsman
218392,36.14886,-115.14444,"Cozy house with pool, 5 minute dr to the strip."
46094,34.10489,-118.34256,Restored Studio w/Exposed Brick in Hollywood
51243,34.09041,-118.21792,Los Angeles City Views!
132056,32.80344,-117.25299,Pacific Beach (B) -3 blocks to ocean & Downtown PB
81922,40.73676,-74.00058,Charming 2 bedroom west village penthouse!
102486,40.74269,-73.97373,3 BR Apt in Murray Hill w/ Balcony & River Views
88292,40.71117,-74.00025,Spacious Two-Bedroom Apartment in Lower Manhattan
176811,30.25535,-97.73956,Brand New 1BR Lakefront Natiivo Austin 24th-Floor
45790,33.82997,-118.19657,Renovated Apartment for Your Rest and Relaxation
144557,36.17817,-86.7899,Sonder at Ziel Haus | Spacious Four-Bedroom Apartment
218970,36.0890027,-115.1257799,Adorable Casita
142687,36.18843,-86.75331,Southern Inspired Home Minutes from Downtown
191054,44.98757,-93.27853,MINNESTAY* Sable 63 ‚òÖ Stylish North Loop Condo ‚òÖ Target Field ‚òÖ Weekend Fun
148872,36.16058,-86.82318,Aesthetic COZY/2BR/Downtown/Broadway/Vandy/Gulch
25399,34.06173,-118.38158,Beverly Hills/West L.A. Apartment
124700,41.39857,-71.6345,"The Getaway Beach House - Charlestown, RI"
30522,33.89586,-118.22725,~Bright & Urban Unit w/ Sun Room~
195280,26.30884,-80.08755,The Cove Beach House: 1.4 mi walk to the beach!
129896,32.78853,-117.20295,Bay Park Central
70693,40.84815,-73.90448,Modern 3BR Brownstone Apartment
205477,25.9817927,-80.12691679999999,NEW! Paradise 2/2 Water view
152305,39.76672,-104.97441,RiNo Studio
32255,34.14872,-118.63706,Spectacular Calabasas Lake View Home
138083,32.7488,-117.19311,"Roomy Loft in of OldTown w/NFT Art, Parking, HBO"
220347,36.00781,-115.17512,DEAL - Vegas - (Grandview) 6 Night Minimum Stay!
59771,34.09854,-117.76301,Walking distance to ULV & the Fairplex
62175,34.04379,-118.25771,Level- One Bedroom Corner Suite
164973,30.27055,-97.72625,Modern Downtown East Austin
50679,33.95504,-118.34624,Walk to SoFi Stadium from this bright modern home!
70347,40.68417,-73.94977,Quiet artist's den
172026,30.30401,-97.70075,"Jazzy! 2x2 BR 17 mins, DT & Airport, Fully Equip"
96101,40.67528,-73.88475,Sunday‚Äôs with Lovey! 3 bedroom unit 2 full baths.
219749,36.1111,-114.92439,"Love, Peace, Joy Condo"
211181,35.97358,-115.16755,Stunning Retreat 15 mins from Strip - Near M Hotel
157359,41.93228,-87.68772,Chicago 4 level townhome+deck near Wrigley&MichAve
168160,30.30498,-97.64498,"Bright, Modern Home with Skyline Views of Austin"
204095,26.01358,-80.42812,3 BR Home w/ FREE Parking Washer & Dryer
177846,30.27301,-97.70502,Crawford's Folly
204231,26.03131,-80.15199,Hollywood 2 Bdrm New Furnished Beach Vacation LB2
17818,29.96835,-90.09289,Centrally Located Mid City 3 Bedroom!
124146,41.8138,-71.41655,Rare Townhouse. 11min Walk  Downtown-  Parking!
46423,33.92128,-118.24874,MLK Hospital‚òÄKing Bed‚òÄWork‚òÄPlay‚òÄEat‚òÄFast WiFi‚òÄ4KTV
202354,25.99105,-80.14104,Luxury Resort Style Condo 10minutes from the beach
205576,26.11933,-80.15742,Cozy 1 Bdrm 5 Minute Drive To Las Olas Blvd
182248,45.48445,-122.59882,Arleta guesthouse - cozy neighborhood experience
181817,45.46027,-122.727,Cozy & Fully Furnished  Residential Home
159461,41.87242,-87.65313,Bright & Happy Apartment
36769,34.00939,-118.23028,Lovely 1b w/balcony+ pool+gym @ prime location
140284,32.72706,-117.25416,Cabo Hermosa
147965,36.15495,-86.85162,Luxe 3BR Dog Friendly | Fireplace | Deck
57732,34.04217,-118.76979,Wedding Location Malibu Mountains
149512,36.99445724487305,-121.89624786376952,The Fox's Den A Relaxing 1 Bedroom Redwood Retreat
157943,41.78091,-87.61007,Beautiful European Apartment
134870,32.78289,-117.25132,Bay Front Beauty-Beautiful Patio on the Bay! A/C!
122093,40.01834,-82.9757,"The Buckeye Bungalow, an updated urban retreat"
131397,32.73975,-117.16493,Cozy 2Bed 1Ba Bankers Hill Residence w car parking
198086,25.98685,-80.12397,Studio@BeachWalk Great North Views6th+ Floor!
227452,42.36786,-71.05389,North End 1 BR - Steps to Hanover Street
123469,41.53751,-71.12461,Guest House Tucked in the Woods
206028,26.11645,-80.15265,"Waterfront Lair ""Retro Chic"" Downtown, Nightlife!!"
71756,40.73739,-73.99758,Studio in Full Service Chelsea Bldg
122127,39.96347,-82.98533,Luxury modern 1BR close to Children‚Äôs Hospital!
133705,32.80124,-117.2574,The Gem - New!  Remodeled OCEANFRONT home
44887,34.173943,-118.441071,Dazzling as soon as you step in. Guaranteed!
40521,34.09451,-118.27413,Amazing Silverlake home with VIEWS
187841,47.6647,-122.28793,Inviting Backyard Cottage
29294,34.15087,-118.57671,"UPSCALE RESORT POOL HOME 4BD/3BA  LOS ANGELES,CA"
69326,40.57716,-74.14087,The Lighthouse Manor
159445,41.93589,-87.69746,Gorgeous NEW 5 BDR/ 4BA in Logan Square w/Parking!
132400,32.749179216176735,-117.17616004050844,"*The Music Den* Best Location, Wi-Fi & Patio"
27279,34.09253,-118.34617,Fabulous Newly Renovated 1BR in West Hollywood
118694,35.54869,-82.6266,2 Asheville Cottages Close to Biltmore on 4 acres!
4036,37.78865,-122.40954,Walk to Union Square - Hotel Style Suite 2 Doubles
175966,30.39716,-97.72116,Cozy & convenient Domain studio
71539,40.7297,-73.98835,Charming Apt in East Village
64969,34.045343419913905,-118.2507359388992,Skyline View Apt 1 Bedroom
186198,47.55264,-122.30485,Beautiful 3 bedroom Seattle house-1-3m or longer
10000,38.91682139999999,-77.04277639999998,Dupont Circle 2BR nr. U St & Adam's Morgan
132958,32.61095,-117.04002,Dream Vacation! Sunny 3 Bedroom Home!
166258,30.19861,-97.77178,One bedroom SOCO apartment all to yourself
73135,40.72689,-73.94535,Greenpoint Studio Loft w/ Terrace
119894,35.59827,-82.51884,"Bright, open studio in East Asheville"
14905,37.82809,-122.21624,Piedmont side of Montclair expansive home!
229415,37.57079,-122.30708,‚ù§Ô∏è Large Modern Luxurious Villa Near SFO
131358,32.76573,-117.25048,Traditional large South Mission Beach Home
206910,26.03075,-80.14126,Modern Brand New House w/Heated Pool
26689,34.09158,-118.34648,Cozy 1BDR apt in heart of LA
211214,36.09689,-115.16862,"Relaxing, 1.5 blocks from strip (8)"
217407,36.12132,-115.18735,Creative warehouse with free parking by the strip
128783,32.82764,-117.27606,Bright apartment in Windansea Beach!
135662,32.71228,-117.15487,Large  Luxury modern 2 BR - near gas lamp
33345,34.18273,-118.14149,Christmas Tree Ln+Old Town Pasadena/JPL adjacent
227713,42.34343,-71.10212,Boston Red Sox / Fenway Park / MFA / NEU
108211,40.762953027816486,-73.99421438610456,Lovely 3BR! Near Time Square!
50462,34.04633,-118.73994,"Ocean & Mountain View Tiny House, 5 Min to Beach"
206555,26.04167,-80.14582,Luxury meets comfort in a Campervan
26818,34.09821,-118.59935,Family Topanga Treehouse
6626,37.78843251392226,-122.41142415343928,CW The Donatello | King Bed Studio Suite
183942,47.69394,-122.38228,Cozy Ballard Private Apartment w/Parking
31164,34.10643,-118.37246,Spacious Laurel Canyon Duplex with Lush Views
122101,39.94716,-82.98033,WALKING DISTANCE FROM CHILDRENS HOSPITAL!
228359,42.359547,-71.0634099,"Beacon Hill 2br w/ w/d, nr Boston Common"
220803,36.13936,-115.22796,The Luxury Experience @ Las Vegas
88263,40.70954,-73.94558,Spacious Duplex Modern Style Loft w/ 3 Bedrooms
198680,26.12587,-80.11929,The Floridian - 2 bedroom 1 King Bed and 2 Twins Beds Luxury Waterfront Apartment off Las Olas
142764,36.17468,-86.78116,DOWNTOWN Condo w/POOL! Next to Broadway! Riverview
33087,34.06332,-118.39255,Beverly Hills Home by Just Bring Your Toothbrush
87994,40.68679,-73.94976,Private apartment in Nostrand
139673,32.84932,-117.25565,"La Jolla, California Summer Home"
17589,29.97075,-90.05729,Sweet Alyssum Easy Walk to Frenchmen & FQ
230253,37.58145,-122.3252,San Mateo Home Sweet Home 2.1
90682,40.71712,-73.94532,"Entire Wburg Home w/ Backyard, 3 Bdrms, 2 Baths"
40060,33.98025,-118.46475,"Lovely, spacious 1 bedroom, best location!"
139619,32.85309600830078,-117.25579071044922,La Jolla Shores Bungalow
170963,30.32833,-97.70376,F06 PET FRIENDLY Queen Bed Studio Suite
15307,37.788654,-122.21537,Brand NEW 1BR 1BA Unit ONLY 15min BART ride to SF
46349,33.78425,-118.15511,Urban Hideout
166860,30.21177,-97.81605,Quiet & relaxing cozy apartment in South Austin
187184,47.68976,-122.3311,"SunnySide Loft- Close to Town, Relaxing, Cozy"
94559,40.7711,-73.95676,TWO Bedroom Apartment | UES 74th St
188516,47.6691184758086,-122.35697916008256,Light Filled Seattle Bungalow
129551,32.738008,-117.123679,Newly Designed 1-Bedroom Apartment
66668,34.1276,-118.19158,Mid-Century Modern Craftsman Hillside Home
168485,30.24146,-97.72474,SXSW Smart Apartment: Walk to anything you need!
95689,40.64837,-73.96924,Lovely Prospect Park 2BR With Yard
172990,30.27677,-97.71863,‚òÖ3BR Modern East ATX |UT|ACL|SXSW|DT-Dog friendly‚òÖ
111362,37.29472,-121.79741,Beautiful Spacious Home in a Quiet Area
61770,34.15948,-118.60251,10.000sf Mansion w/cityLightsView/OnTopofTheworld
186040,47.60521,-122.32083,Modern  Loft on First Hill
196227,25.98673,-80.12398,2br 3 beds apartment water views stylish balcony
131524,32.71469,-117.15682,"($4,499 per Month) Gaslamp - 1 BDR/Free PKG"
29435,33.97653,-117.90305,"üí´BOHO STYLE Home w/ Pool table, 12mi to DISNEY"
42522,33.78821,-118.16008,Long Beach Garden Home-Casa de Jardin PRP20-00036
13509,37.83966,-122.25546,Luxury Rockridge Casita in Our Sunny Garden
229734,37.4542,-122.42987,Spacious remodeled House off Main Street
58176,34.065464,-118.160851,Alhambra Charmer (sleeps 16)
185860,47.70482,-122.34123,Northgate house- Pet friendly backyard- 15min city
70900,40.74109,-73.92006,"Big room 2 blocks from Central Park, UWS Manhattan"
159221,41.91572,-87.67945,Heart of Bucktown Private Retreat
49554,34.0472,-118.09797,LUXURY SPACIOUS RV- 1BEDROOM
141680,36.1481,-86.83786,‚òÜ Footsteps to Local Favs ‚òÜ Minutes to Downtown
24053,29.961925068942865,-90.0784357986772,The Roman Treasure II
131159,32.79121,-117.24415,Your apartment on the beach
163127,41.91824137516668,-87.69449380190396,Penthouse Mid Century Modern-Logan Square
71672,40.68623,-73.94041,"2 BR Brownstone Retreat, 2nd Fl."
147268,36.1716029,-86.77966909999999,Luxury Riverfront Condo DT Nash-Walk to Broadway!
224361,36.09621,-115.20809,Entire 2Br apartment near Strip
76450,40.71306,-73.96048,Modern Apt in Townhouse in Williamsburg prime!
205292,26.09161,-80.16443,LoKal Rentals 3A - House in Fort Lauderdale
37029,34.09668622794175,-117.84829133193922,"2 Kings, 2 Twin, Pets allowed. Backyard, Garage"
19198,29.95738,-90.11647,Uptown near Loyola and Tulane-Steps to Street Car
230762,37.42384,-122.19945,"Menlo Park 2BR w/ Pool, Ball Courts nr Top Schools"
118225,35.549,-82.65061,Lofts of the Mountains ll
194039,44.93075,-93.17995,Mid-Century Modern Gem
8555,38.91297,-77.01579,Walker's Paradise
101921,40.8070483,-73.9421129,Contemporary Condo in the Harlem Neighborhood!
176575,30.23456,-97.72933,Riverside Renovated Retreat
154784,39.7579464,-104.9839476,"RiNo Studio w/ Gym, W/D & Pool, nr Coors Field"
151887,39.78905,-105.018,"The Blue Door Studio, Denver"
124750,41.47865,-71.315,Thames Street & Wharf Private Home with Parking
107049,40.89629866054645,-73.85071351736042,Spacious 1 BR with kitchen/bath
163336,41.88228985342503,-87.68116180949048,Chicago Mid-Century Gem Steps From United Center
145637,36.12374,-86.74605,Cheerful 2-bedroom home in Woodbine
174156,30.28529,-97.76586,Beautiful Designer Space with Vintage Furnishings
182441,45.59432,-122.74282,Peaceful Garden Oasis
11238,38.899752,-76.997337,"H St 1BR w/ Pool, Gym & W/D, steps from WF"
31179,34.06052,-118.38314,King Private Studio Apt
128208,32.8203,-117.16655,"Modern 4Br/2Ba home w/ backyard, 10 min to beach."
216964,36.05652,-115.28834,New luxury&modern 4 bedroom House
122063,39.965,-82.97964,Modern Condo- Downtown-Long Stays Welcome
97582,40.69006,-73.91695,Lovely 3-Bedroom with High Ceilings in Brooklyn
191295,44.91213,-93.32656,Fulton House at 50th & France License #386530
154646,39.73312,-104.99014,Arts District Loft with Free Garage Parking
166792,30.23805,-97.73297,1 bedroom apartment by Downtown in East Austin
1239,37.78863,-122.41129,SF Hotel Studio: Union Square (8)
159244,41.91007,-87.67199,Penthouse Condo + Roof Deck + Gym in Wicker Park
156183,41.89821,-87.6572,Downtown Urban Oasis 3BR + Huge Deck & Parking!
95463,40.75096,-73.9785,Enjoy The Big Apple And Its Wonderful Sites!
178788,45.55214,-122.67943,"Bright Mississippi AC MAX 2 Dwntwn Portland, OR"
81010,40.78952,-73.96798,Magical UWS Manhattan loft with two kitties!
2007,37.74499,-122.45486,Upscale Neighborhood No cleaning Fee w/parking
62012,34.06723,-118.35173,Cozy 2 Bedrooms 2 Baths
109372,40.73214167285234,-73.98514164294748,Furnished Studio in Manhattan!
11053,38.9,-76.98953,Modern room w/ outdoor space; Historic heart of DC
122085,39.99198,-83.05203,The Broadway(C)|Hot Tub| King bed| pets|fast Wi-Fi
225736,42.35948,-71.14155,Newly renovated 3 bedroom  w/wifi & parking
119965,35.47589,-82.56845,South Asheville Getaway | 2 BDR Apt | Gym & Pool
75026,40.76085,-73.96655,LUXE STUDIO SUITE - Midtown East - 22
30784,34.05856,-118.38266,Three Bed Family Style Unit
167714,30.27131,-97.71997,Minimalist East Austin Casita for 2
155807,39.73391,-105.04606,1/2 Duplex w/ Private Yard
110024,42.37305,-71.09279,Pretty private garden-level condo+parking near MIT
36114,33.76599,-118.18763,Furnished One Bedroom Suite with Ocean Views
164016,30.23661,-97.7449,ATX -SOCO 3bd House...beats hotels!
148015,36.366452,-86.7411429,House on the hill with an amazing dressing room
184798,47.63056,-122.36779,Sweeping Views & Prvt Deck | 2BR w Kitchen+Parking
88664,40.710979570506495,-73.99209848402974,Furnished Apartment #235: Lower East Side
168209,30.22965,-97.70027,‚ÄúMy home is your home‚Äùentire house
100473,40.69396,-73.96976,Lovely 3-bedroom rental with backyard
104207,40.6679856,-73.93073520000002,Beautiful & New 3 bedroom 1 block from subway!
162665,41.83807,-87.65802,31st Bridgeport 3R 2bed/1bath + Free Laundry
11301,38.88269835326428,-76.98148147082159,Lovely two bedroom condo.
141889,36.17168,-86.74899,Boscobel Hideaway in East Nashville
95373,40.67985,-73.94145,Brand New Brooklyn Apartment!
168989,30.21078,-97.7881,Lovely and Quiet 1 Bedroom Condo with pool.
196723,25.98959,-80.11762,Beachfront Amazing Ocean View Heated Pool
184486,47.67338,-122.32663,"The Speakeasy, a Green Lake Getaway"
124335,41.5483,-71.14684,Coastal Oaks Little Compton
112012,37.32118,-121.89332,"Spacious 2-Bedrooms/2-Baths, SJC DownTown/Airport"
216899,36.03469,-115.17384,"Las Vegas, NV- Boulevard Resort 2 Bd"
150473,37.06702,-122.03835,"Captain's Den, sunny deck, redwoods, hiking, TV"
50355,34.62576,-118.18682,Refreshing 4 bedroom home in Nature
160338,41.88761,-87.61922,Stylish One Bedroom in an Amenity packed building!
170630,30.4329,-97.7187,North Austin Beauty Close to Best Sushi & Domain
164449,30.27854,-97.69352,SXSW
119765,35.44915,-82.49432,"2 bdrm near Christ School, Sierra Nevada, Airport"
188163,47.6057762,-122.314629,Modern Style Home near Capitol Hill and Seattle U
93963,40.78048,-73.95384,165 East 89-Studio in Upper East Side
208484,25.99411,-80.11938,Free Beach Service and Parking Two Apartments!
167084,30.26178,-97.77489,Barton Hills
51150,34.07494,-118.06977,"K-private suite near target, Ross & a little mall"
61715,33.95322,-118.38053,HUGE Cozy 2bd/1ba Apt w/Office & Back Yard
48000,33.8297445,-118.3756414,"Redondo Beach 3BR w/ W/D & Courtyard, nr PCH"
141809,36.22504,-86.75789,The Staycation
112105,37.32685,-122.03926,Adorable guest suite with seperate entrance
154468,39.79167,-105.03103,"Charming Getaway Perfect for Groups, Casa Mariposa"
210881,26.24294,-80.18275,Relaxing Getaway w/ Heated Pool - 15 min to Beach
228315,42.35241,-71.06387,"Downtown Studio Apt, short walk to hospitals"
98830,40.747478,-73.974541,STUDIO IN CENTRE OF MANHATTAN! CENTRAL LOCATION !!
52412,33.88367,-118.38877,The Modern Cozy Beach House
32661,34.19221,-118.14995,Stay in LA LA Land at The Blue Moon Bungalow
219409,36.13137,-115.28302,Casa De Art
578,37.79114,-122.44209,Pacific Heights Victorian
144485,36.12604,-86.77923,Luxe Designer Studio within 2 miles of Downtown!
103907,40.73307,-73.99005,Luxury 3bd in East Village
210091,26.1591081,-80.1562247,Waterfront Tropical Oasis 4 Bedroom Pool Home
50687,33.93047,-118.3116,Adorable guest house - parking on premises
35225,34.00541,-118.43247,"MAR VISTA, LA  with Private Garden GUEST HOUSE"
21020,29.98213,-90.09197,Basement Apt. city park /museum on streetcar track
34610,34.06223,-118.36162,The Monet Two-Bedroom Suite
91388,40.73533,-73.98666,"GRAMERCY PARK Union Square Luxury 
1 bedroom"
19123,29.95774,-90.08702,Walking Distance to French Quarters and Superdome
183059,45.5296378,-122.6740745,Waterfront Pearl Portland Condo
203839,26.02532,-80.18966,Large Pool Home in Hollywood! Near Hard Rock
123496,41.51581,-71.30712,Day Lily Cottage
151628,39.73844000942368,-104.9653005422751,Feels like a private castle in Capitol Hill
218044,36.10659,-115.16568,F2Q1 1BD/2BA Strip View/Balcony/Full Kitchen/Pool
146136,36.18049,-86.74698,"Modern, walkable, private East Nashville treehouse"
21575,29.93276,-90.08633,Quaint 2Bd Steps From the St. Charles Streetcar
182315,45.52151147647524,-122.66134731863848,Modern Apartment in Prime Location (ID1187X358)
51190,34.07703,-118.06592,A-Quiet & Cozy Home away from Home
126819,41.4958089,-71.2819224,49 Reservoir Road ¬∑ Homey 3BR/1BA Near the Beach
38494,34.24064,-118.56125,Beautiful NEW 1 Bedroom 1 Bath wHUE
27149,33.99883,-118.4316,Cozy & cozy bohemian oasis by beach communities!
206450,26.03585,-80.14503,Ft Lauderdale Stylish 6-bed Home Close to Beaches
160901,41.8763,-87.65371999999999,"W. Loop 1BR w/ Pool, Coworking & Gym, 1 block to L"
142925,36.17666,-86.79672,Booker's Guest Suite Downtown
46572,34.11334,-118.3109,1920s Spanish House in the Hills
164041,30.25795,-97.77202,The Big Zilker. Minutes to it all!
136964,32.72692,-117.23059,Harbor Hideaway Bungalow- Level 1
119404,35.58531,-82.57829,Top floor private suite with large deck & balcony.
145594,36.13654,-86.79814,"Nashville luxury group getaway - Vanderbilt, Belmo"
177078,30.430176845451225,-97.93887659629516,Modern Lake Travis Gated Condo
102518,40.74829,-73.98824,Chelsea Lovely Romantic Studio For Couples #6
225371,42.25481,-71.14593,Country Cottage in the City
71780,40.68723,-73.95367,Duplex with private garden available for April
9256,38.92804,-77.07598,Cathedral Charmer
154176,39.76014,-105.01303,"Post-Worthy City/Mt Rooftop Views,Modern LoHi 3b3b"
50936,33.99704,-118.29664,Renovated 2bd/2ba House Near USC & DTLA | 6 Guest
211949,36.10026,-115.21404,Two Bedroom Casino Retreat
109268,40.722368090185206,-73.99135278890958,Take a Visit at Battery Park! 4 Relaxing Units!
158318,41.8258,-87.61993,Bronzeville Beauty: Modern Style + Historic Charm
47353,34.04959,-118.25753,"Downtown 1BR w/ Gym, Pool & Spa, nr 7th St Metro"
98520,40.75946,-73.98724,3 Premium Room at The Gallivant Times Square
214610,36.10011,-115.21128,Rappaport  Redline  near strip
36412,34.06684,-118.45414,Retreat to the Bachelor in The Village
131898,32.82858,-117.27824,La Jolla Beach Home with ocean views
154678,39.75048,-104.97728,Private 1 Bedroom apartment close to downtown.
166724,30.256041,-97.714638,Hidden Gem by Austin‚Äôs best nightlife & food scene
209954,26.13649,-80.11025,Luxury Condo by the Sea
167479,30.27196,-97.68144,‚Ä¢ Beautiful Blue East Side Bungalow *with Pool* ‚Ä¢
145416,36.19618,-86.77389,Trendy East Nash Home Perfect for any Occasion!
92943,40.76453,-73.98366,Luxury 1BR at 8th & Broadway | Hells Kitchen NYC
168595,30.3052,-97.73581,Stylish 1940s Boho Bungalow in Central Austin
35229,34.09468,-118.20269,Dramatic views/ Private Guest suite & covered deck
145671,36.18517,-86.79654,"üåüüåüüåüüåüüåüOversized deck, patio, grill,prime location!"
181697,45.5297,-122.69259,Modern touches in classic NW Portland 1 bed condo
135254,32.7773798,-117.2522256,All Decked Out
177670,30.247086793195468,-97.76441416683453,Private guesthouse
79639,40.68507,-73.97618,Minimalist Brooklyn Artist's Loft (Fort Greene)
158568,41.92932,-87.65165,The Best of Lincoln Park!
42218,34.57805,-118.10023,Comfy NYC Style Suite 1BR/1BR ~Close To Shops
65241,34.04603,-118.25027,"Airy, modern loft in the heart of Historic DTLA"
14450,37.79336,-122.20727,Welcome to our cozy home.
18741,29.92109,-90.11936,Uptown NOLA 2BR Apt on Magazine St. w/ Backyard!
230690,37.64988,-122.45951,BRIGHT | SPACIOUS | NEWLY RENOVATED | CLEAN | COZY
84227,40.79387,-73.97518,Ultra Luxury 1BR Manhattan Apt w/Gym/Pool!
177660,30.461483749816512,-97.79859344247636,"Mellow Yellow Condo - Austin, TX"
6851,37.71560262698468,-122.44326632038002,48 - Adorable & Plush 3B2B Upper Unit near BART
162703,41.8925035,-87.61628259999999,"Streeterville Studio w/ pool & gym, nr Navy Pier"
22410,30.04355,-89.93025,"FOD Home & Efficiency, 15 mins to Bourbon"
227606,42.35385,-71.06316,Experience Boston At It‚Äôs Finest!
3002,37.77008,-122.44281,Central Victorian Lower
68920,40.71291500039569,-73.95864349765071,Williamsburg Condo w/ Backyard
203344,26.14849,-80.2271,"Homey Suite near dining, shops and attractions."
193408,44.9578,-93.12412,Cozy Living | 2 Bedroom | Free Parking
23688,29.9462651,-90.0924824,Best Location Gorgeous 3-Bedroom rental unit.
91274,40.71233,-73.96147,beautiful apt in the middle of williamsburg
100724,40.88373,-73.86219,Cheerful 2 Bedroom Home in the Bronx
62799,34.1416,-118.14552,Comfortable 1BR Apartment in the Heart of Pasadena
54778,33.76197,-118.14429,Castle 1 bedroom walking distance to the beach
87499,40.69745,-73.92809,Garden condo w patio in New York artistic Bushwick
183448,47.65328,-122.33034,Cozy Home Near Lake Union & UW
110883,37.41937,-122.12949,Modern and Charming 2B2b 2 apartments in Palo Alto
84989,40.6438,-73.96446,2bdrm apt in UNIQUE Victorian Home steps to train
93862,40.84435,-73.8455,Cozy & Spacious 1 bedroom attic apt. w/ parking.
97797,40.747211,-73.987808,Midtown 2 bunk beds Studio
148272,36.06784,-86.59844,Cute peaceful oasis in Nashville
17082,40.73364,-74.04527,Family Friendly apartment/2 bathroom
181356,45.52511,-122.69574,"Guest Suite in Alphabet/NW District w A/C, Parking"
122116,39.95238,-83.02254,Housepitality - The Mint Julep House
122409,39.9491,-82.99203,Charming Townhouse in German Village
154274,39.714916,-104.980026,Spacious historic home in central Denver
9025,38.9139,-77.03263,Serene Flat at U/14th St in Shaw on Quaint Swann
128383,32.757193322959125,-117.15252287685873,Casa Meade
164460,30.23721,-97.75909,"Charming, Newly Updated Craftsman-Style Home Located in Austin's SoCo District"
29192,33.96606,-118.39127,Guest house studio w/ full kitchen close to LAX
185758,47.6837,-122.34245,Green Lake MIL - Modern Home Away From Home
22328,29.96388,-90.04272,Sonder The Bywater | Superior Two-Bedroom Apartment
66556,34.07661437988281,-118.37137603759766,Beverly Grove Spanish Oasis 5 BR Villa w/Pool
116860,37.40295,-121.96076,Modern 1/1 ADU w/ Fast Wi-Fi in Santa Clara!
78357,40.72266,-73.95251,Charming Greenpoint Apartment. Clean!!!!
180553,45.58335,-122.68241,Artist #5‚ÄìJust Steps from the Max
120823,39.98693,-83.03458,Close to Campus | Free Off Street Parking
96355,40.79886,-73.94103,"Simple, Clean, Quiet 3 Bed 2 Bath East Harlem"
130018,32.73733,-117.25368,1B1B Guesthouse Walk to Beach/Sunset Cliffs!
57660,34.0784,-118.36848,Stunning Home Modern Luxury
127119,41.53603,-71.38598,Peaceful Retreat with Beautiful Sunset & Bay Views
107549,40.75383353249784,-73.97158813159456,CW Midtown 45 Resort | King Bed Studio Suite
164464,30.26977,-97.73512,Apartment available for SXSW
178309,36.621775,-121.920627,3703 La Gloria Cottage-by-the-Sea ~ Walk to the Be
6871,37.784526533287455,-122.41467932564704,Studio Apartment in the Heart of SF
143105,36.14148,-86.7685,Wedgewood-Houston Townhome - 6 Mins To Broadway!
75433,40.74799,-73.97972,A COZY HOME IN THE HEART OF MANHATTAN
217180,36.02795,-115.01909,"Charming, Cozy & Elegant Zen Retreat with Hot Tub"
35379,34.07313,-118.38749,Beverly Hills! Walk To Rodeo Drive & Cedars Sinai
101086,40.76101,-73.99454,Renovated 2 Bed / 2 Bath Apt in Prime Manhattan
182920,45.521654160262216,-122.67090059602982,Wyndham Portland Waterfront Park Resort | Studio
109513,40.77359362253778,-73.9556107583977,New 1BR Prime location WD in Unit Walk 2 C park
93041,40.64125,-73.97069,Entire rental unit 3-Bedroom Flatbush Brooklyn
188255,47.61331,-122.33357,"Central 1 Bedroom Unit in Seattle, Washington"
199344,26.26336,-80.08563,Heated pool & Jacuzzi! 5 bdrm-Close 2 Beach & Golf
178311,36.62211,-121.91985,Vacation at beautiful seaside Monterey Bay
74904,40.79735,-73.97322,1925 Classic Upper West Side  2 Bedroom apt
159070,41.883056,-87.65131389999999,"W. Loop Studio w/ Gym, Pool, nr. Restaurant Row"
109241,40.71469,-74.00803,Near Museum of the Moving Image! Relaxing Stay!
196047,25.988,-80.16923,Adorable Cottage - 1 bedroom in Hallandale
102362,40.77536,-73.98949,Beautiful 1 bedroom apartment in a luxury building
73882,40.67377,-73.92823,Spacious duplex in townhouse.
131544,32.82855,-117.27452,Walk to the Beach from Upscale La Jolla Home
228184,42.34256,-71.0821,Ellie 10- Tropical Oasis in Back Bay! Location1
136238,32.799197610191655,-117.04638957425,San Diego Resort Style Living
16180,40.72494,-74.04625,"Cozy Apt Dwntwn JC, 8 mins to NYC(APT 2)"
163741,41.97936020795047,-87.66041406712979,Comfortable Furnished Studio with Kitchen & Wi-Fi
196008,25.99038,-80.14161,#1 RETRO: 1 BD/1BT & 1 FREE Parking. 2 Queen beds.
50242,34.067664,-118.3465144,"Mid-Wilshire 2BR w/ Sundeck, BBQ, nr The Grove"
100786,40.65788,-73.936,Cheerful 2BR | Walk to Medical Centers w/ Parking
197032,26.28125,-80.25855,Marcellus P. Properties
39754,34.02953,-118.48794,Modern Santa Monica Upper 2Bed/1Bath w/ Laundry
1798,37.7345,-122.42515,Spacious house. Stunning yard/deck/patio. 3BR.
166236,30.3244,-97.8749,Quaint Hill Country Haven close to Austin
165307,30.24222,-97.72461,Spacious 1 Bed 1 Bath on the Lake
55759,34.00054,-118.45809,Modern Home in Venice Beach
154266,39.74261999999999,-105.0266211,"Sloan's Lake 1BR w/ Roof, Gym & W/D, nr Park"
183096,47.65474,-122.35546,"Modern, Light-Filled Fremont Flat"
38520,34.00895,-118.28334,Convenient 4BR 4.5B Home near DT
43431,33.99048,-118.47273,Renovated Venice Beach Craftsman - Prime Location!
122798,39.9739,-82.96249,Mt. Vernon Ave- Newely Renovated
71209,40.68662,-73.97442,Sunny 2BR in Heart of Fort Greene
224371,36.12423,-115.14986,LUX 1BR/1BA Condo with Master Suite near LV Strip
1843,37.79418,-122.41437,Charming 1 BR in the Heart of Nob Hill (sanitized)
135337,32.78512,-117.25405,"Makai - Entire Duplex Property, Ocean View Patio"
64559,34.05851,-118.38507,Relaxed Unit with Private Bath
37875,33.92393,-118.37012,Large One Bedroom Apt with Backyard - 5 min to LAX
179389,45.5269,-122.69601,Portland International Guesthouse - Apartment
52822,34.01573,-118.48382,Cozy 2 bedroom in Santa Monica
139892,32.75525,-117.14386,2 bedroom condo with parking
163803,41.90859,-87.66967,"Fast Internet, Smart TV, Office"
220563,36.05869942168071,-115.17087745662232,"Tahiti Village, Vegas March Madness includes fees"
195849,26.01428,-80.26458,Studio- Between Hard Rock Stadium & Casino
186386,47.72253,-122.33627,Private Lakeshore Home with Air Conditioners
82186,40.78969,-73.9744,"UWS 1BR w/ Gym, Walk to Central Park"
12132,38.89736,-77.00864,Prime Location for Business and Leisure!
207970,26.136737823486328,-80.1036376953125,The Purple Pelican~Beachfront w/ Ocean Balcony~#5
132996,32.73952,-117.15954,San Diego Inn at Park studio unit
218684,36.09778,-115.12649,Modern Condo near Las Vegas Strip & Airport
108143,40.75133080706738,-73.98482467979193,New Years Eve at MVC NYC
50746,34.10048,-118.45911,Bel Air Stradella | Enchanting Villa | Pool & View
28591,34.04549,-118.25551,Huge Ace-Style Hotel Loft Downtown!
157900,41.89711,-87.69129,Whole 3 Story house! Wicker Park area-15mn fr loop
153628,39.7386121,-104.9737305,"Capitol Hill 1BR w/ W/D, 4 blocks to Cheesman Park"
67293,40.72843,-73.98014,GREAT 1BR/2BA TERRACE & W/D! in EV!
193413,45.39611,-93.74804,NEW! Lower Unit of Cabin: Shared Dock & Fire Pit!
138646,32.7493,-117.05755,Tranquility in San Diego
131168,32.72369,-117.1241,"New, quiet 2br getaway close to downtown"
113118,37.38580810000001,-122.0766296,Spacious 1 Bed in Downtown MV
197251,26.1305,-80.27076,plantation townhouse
223232,36.1431,-115.17822,Close to the Strip CleanSleeps 12 FREE Parking/TEA
193299,44.90698,-93.21916,Charming Minneapolis Home Near Airport
200820,26.01677,-80.11749,Rooftop Pool+ Hot Tub|Hollywood Beach Boardwalk
68584,40.77603,-73.918,2-3 bedroom apt in Astoria NYC
94287,40.704903,-74.006416,1 Bedroom Premium Gourmet |  Placemakr Wall Street
130315,32.77804,-117.25176,Light And Airy Penthouse Overlooking Mission Bay!
129777,32.96616,-117.13987,Panoramic Views with Relaxing Resort Feel.
47964,34.06577,-117.90499,Gathering Place
104272,40.7325187,-74.00166569999999,Beautiful and new 1BD/1BA apartment in Manhattan
166306,30.24544,-97.74918,Cute Soco Bungalow Walk to SoCo and Pool/Park
215216,36.09987,-115.21456,"Las Vegas (Tropicana), NV Entire 1 Bedroom Condo"
3143,37.73246,-122.44777,Tastefully renovated with Million Dollar Views:)
70069,40.82063,-73.95613,NYC GORGEOUS LIGHT APT/PANORAMIC RIVER VIEW
73624,40.72538,-73.95166,Gorgeous Greenpoint:  Sublet April 10th - 27th
168946,30.25542,-97.78033,Lotus Owl Tree House
166254,30.24702,-97.75113,South Congress Tiny House Jewel!
231011,37.46424,-122.43081,Large Apartment Overlooking Historic Downtown HMB
169730,30.41643,-97.69413,Rustic Renovated Private Suite near Domain & Apple
17719,29.98053,-90.0794,2BR Classy Bayou St John Apt
124594,41.48836135864258,-71.28057861328125,Ocean Views | Upscale Stay | Steps from the Beach
17119,40.756611,-74.05265,Great family apt 30 min from NY
223826,36.20224,-115.2497,Guest House in a Lovely Backyard
164272,30.29012,-97.7623,Tarrytown Colonial Farmhouse with Resort Pool
192849,44.58361,-92.4476,1 bedroom cottage at the head of lake Pepin
203257,26.126997,-80.37352,Entire Luxury 2BR 2 BA Rental Condo Unit
201470,25.98913,-80.1173,Beautiful apart over the beach with sea view TIDES
162934,41.98181,-87.77898,Modern 2 Bedroom apartment in Jefferson park
134111,32.77513,-117.25102,"Exclusive 1,000sf Ground Fl Waterfront Patio + AC"
114280,37.32249,-121.90355,Luxury Condo DwnTwn SJ SAP/Caltrain
171932,30.22812,-97.86504,"Austin Party Pad pooltable, theater, b-ball  court"
130169,32.77196768092728,-117.2517222125623,"Oceanfront Penthouse: Luxury Views, A/C & Parking!"
170268,30.28119,-97.70422,Cozy Eastside ATX Bungalow
209458,26.19251,-80.11443,Pickleball/Gameroom/Heated Pool
134984,32.774864,-117.252907,Amazing View 2BR Oceanfront | Balcony
2882,37.75927,-122.4308,Perfect Castro Dolores 2 bedrooms w Stunning View
115407,37.31694,-121.95455,Elegant place near Santana Row for vacation/work
161286,41.95207,-87.67316,Lakeview | Amazing location | Cute 2 bedroom oasis
21004,29.96206,-90.09483,Beautiful New Orleans Shotgun Home 7 mins to FQ
134398,32.71458,-117.16058,CW Harbour Lights | 1BR/1BA King Bed Balcony Suite
161446,41.81529,-87.6178,VIP Studio-2
121607,39.96686,-82.91382,The Artsy Attic Suite ‚≠ê 10min to Airport
161094,41.86864,-87.62665,Cozy 1 BR Apartment in South Loop
108520,40.67839,-73.78994,Graceland haven
115472,37.34749,-122.08783,"Private Unit with Separate Entrance, Los Altos"
104083,40.6977712,-73.9361899,Minimal 1 bedroom apartment in heart of Bushwick
183994,47.63781,-122.3727,Stunning Views - Queen Anne apt with Free Parking
27411,34.696236,-118.165253,Home Vest -  Private & quiet neighborhood
88407,40.7604361,-73.96852299999999,"Sutton Place 2BR w/ Gym, Pool, DM, nr. Central Pk"
111620,37.35323,-121.90089,"ACCQ: 3 Minutes Away Airport, Restaurants, Casino"
217579,36.11303,-115.18627,One mile to the strip!
112568,37.37892,-121.89728,Luxury entire condo near San Jose downtown and SJC
87855,40.73388,-73.99843,LARGE 2 BEDROOM 2 BATHROOM APARTMENT WITH  W/D
207801,26.16743,-80.09873,Studio on the beach
132563,32.74728,-117.15675,Walkable Hillcrest Hideaway by Whole Foods
68163,40.8117,-73.93907,Brownstone Penthouse Apartment.
44728,34.09495,-118.25813,Cozy 2 bedroom in Trendy Silver Lake
223166,36.1139,-115.19804,WN10* Studio Suite/No Resorts Fee/Lobby Bar
41049,34.021837901145865,-118.4672154276706,Cozy bungalow oasis
166786,30.20874,-97.8178,South Austin Texas Oasis - Sleeps four (2nd floor)
158397,41.89533,-87.63092,Lovely Studio @RiverNorth (West Superior) #Balcony
199,37.80074,-122.41048,Relax in a Charming Edwardian Flat in Russian Hill
166027,30.26168,-97.7308,"The Central Hacienda, WALK TO ALL OF DOWNTOWN!"
60963,33.98209,-118.45947,Luxury Venice Retreat with Great View in Venice
112436,37.26969,-121.91943,Buster the Converted Bus
2918,37.77673,-122.49235,Newly remodeled full floor flat with ocean views
60867,34.12801,-118.42254,Very Private Beverly Hills Mansion 9BR/10BA
71666,40.75834,-73.91284,The City Farmhouse APT B **MONTHLY RENTALS**
19053,29.93413,-90.08353,"""605"" Front Balcony on St. Charles"
90694,40.79067,-73.97028,2 Bedroom Apartment with Private Terrace
219295,36.10859,-115.16558,$5 Million MGM PENTHOUSE with Balcony and Hot tub
5109,37.75819,-122.49494,Modern Cozy Couples Getaway | Walkable &Convenient
168781,30.34887,-97.74737,Artist Home
220678,36.10353,-115.31482,Beautiful Summerlin 4-Bedroom Home w/Pool
52002,34.04066,-118.43334,"Charming Spanish, Westwood Area
2 bed, 1.5 bath"
26062,34.08386,-118.39023,Tropical oasis with private heated pool and gym!
142745,36.16304,-86.81797,Southern Charm Easy Interstate Access
135841,32.71,-117.15897,High Rise Luxury Apt DT San Diego wit Rooftop Pool
181423,45.56574,-122.67818,Peaceful Basement Studio with Hot Tub
164899,30.28013,-97.7072,"Spacious, Modern Home on Metro Rail"
