,latitude,longitude,name
123508,41.4789,-71.3151,"2 Bedrooms w/Loft & En-Suite Baths, Walk to Harbor"
35728,34.10351,-118.34068,Cozy Private Condo near Hall of Fame in Hollywood
107618,40.67490993902448,-73.98059801797959,Studio apartment-newly renovated-1 queen bed
182656,45.48261,-122.60798,Cozy retreat in SE Woodstock
117536,35.59221,-82.55866,DOWNTOWN! Seconds from it all!
31928,34.13683,-118.14559,Craftsman Character Guest House
218849,36.11315,-115.25576,Boho Oasis - 3BR house with private pool
71555,40.68414,-73.92791,Bright Brownstone 2BR BedStuy Apt
64313,34.10748,-118.24972,Trendy & modern centrally located apartment
209978,26.137312,-80.10931330000001,Beautiful  Ft Lauderdale Condo
200832,26.01754,-80.11788,CH- Brand New Luxury Condo With Ocean View and Just Steps From the Beach-300000038
7691,38.89003,-76.9864,Capitol Hill apartment: first floor living & bikes
82935,40.75014,-73.87702,1/2 block from train 7! entire apartment / Queens
137965,32.79464,-117.1561,Cute - Cozy - Studio Unit - 121
166655,30.30712,-97.69524,Cozy Large Home In Central Austin
102558,40.71604220196204,-73.96121587604284,Apartment in Williamsburg
123576,41.48059,-71.43563,Bonnet Shores Narragansett RI
35698,34.02769,-118.38501,Gorgeous Cottage in Culver City on Hayden Tract.
88985,40.76172,-73.96228,Modern Studio in the Elegant Upper East Side Neighborhood
75953,40.72053,-73.95541,1 Bedroom Apt. in Prime Williamsburg
25190,34.07775,-118.37247,"Luxe West Hollywood Villa | Pool, Spa, Location"
201107,26.14321,-80.12946,Home @ Poinsettia Heights
215631,36.17062,-115.14664,"You Found It! 3 Great Units, Free Parking"
64964,34.04464,-118.25239,"Loft DT, Los Angeles: 2 beds 1 bathroom"
192599,45.14981,-93.30036,3BR house with modern furnishings. Newly Built
90121,40.8319,-73.94157,Clean & Cozy 1BR Apt - Perfect for SOLO Traveler
3795,37.72332,-122.45671,San Francisco Cozy Get Away
160606,41.8634989,-87.62704269999999,"S. Loop 1BR w/ Roof, Gym & Lounge, 1 block to L"
196831,26.19029,-80.09796,Just a few minutes to the beach with Heated pool
219226,36.15747,-115.21819,Pet Friendly! The Banana Bungalow
137547,32.7992,-117.23228,(L) 1Bed/1Bath spacious on Thomas/crown point
45461,33.8713,-118.39263,The Boujie Nomad LUXURY Mercedes Sprinter Studio
159530,41.89923,-87.6384,The Orleans - Floor 3: Private rooftop deck!
112519,37.2333565,-121.7961795,No Cleaning Fees! Glam Zen Vibe!
231110,37.66196,-122.43952,"Luxury 3BDR/2BA Next To BART Subway, Close To SFO"
115532,37.35593,-121.87765,"Luxurious 1bed suite, ultraFastWifi, near SJ DT"
195504,26.17862,-80.09782,Fort Lauderdale Ocean View Beach Frontage
55233,34.15604,-118.00914,Beautiful Vacation House in a Nice Area
72655,40.71333,-73.99513,Cosy studio / newly renovated
118374,35.5872,-82.57082,The Triple Falls Room at River Row Flats - Room 302
215871,36.08881,-115.22461,Vegas Adventure Awaits! Close to STRIP and Airport
184439,47.61655,-122.34656,Space Needle View!
212329,36.21149,-115.09396,Loft style 2 level condo
75539,40.68925,-73.9414,BedStuy/Clinton Hill Brownstone
135431,32.78444,-117.25377,Side-by-Side Luxury Beach Condos Steps to Ocean!
162323,41.9003385,-87.7167284,Artsy Chic 2BR Condo With Free Parking
100882,40.54273,-74.149,"Modern One Bedroom, Private fenced yard"
213807,36.00086,-115.09396,"Henderson, NV, Upgraded, cozy, spacious condo"
76172,40.67104,-73.96036,One Bedroom off of Franklin Avenue in Brooklyn
63350,34.16821,-118.25564,Historic apartment
126526,41.48644,-71.31268,PERFECT LOCATION! Entire house downtown Newport!
121737,39.93912,-82.99189,Lion's Lair in German Village and private garage
24086,29.93095177583477,-90.11093489830908,Charming Uptown Studio
199178,26.24057,-80.09066,Casa LaVie with hot tub one block from the ocean
102888,40.82506,-73.85106,Cozy Two Bedroom Basement
37896,34.10284,-118.34346,Sophisticated Studio for sophisticated traveler
83689,40.68811,-74.00018,Sunny and Modern Cobble Hill 1 Bedroom
213382,36.11176,-115.27468,Modern/Stylish 3BR house near Las Vegas Strip
136761,32.75305,-117.05585,Cozy Modern Casita in La Mesa
9059,38.94295,-77.03489,Great Location.Spacious.Newly Renovated.2x Parking
142137,36.14534,-86.79034,Rustic Studio Walkable to Music Row
180260,45.4782,-122.61199,"Large, Private Woodstock Suite"
153640,39.736767,-105.044228,"Tiny Carriage House...""The Whistle Stop"" 30+ days"
219859,36.1158393,-115.1621238,Security & Safety by The Strip
200970,26.19714,-80.09717,Walk to the Beach Villa in Lauderdale by the Sea
200090,25.986013,-80.12281,Waterfront Views by RentMiami305
40488,34.10465,-118.33527,HOLLYWOOD: 99 Walk Score w King Bed-New Building!
7887,38.88254,-76.98646,Cozy Capitol Hill 1 BR English Basement
230353,37.49015,-122.45428,Luxo Stays |Beach Now| 5bd/3ba #getaway #staycation
88639,40.75226,-73.92881,Modern One BR Apt  750 sq.ft. (34 Days Min.)
122952,39.94871,-82.98019,W.O.W Words of Wisdom
122193,39.96448,-82.97045,Chic City Retreat: Columbus Studio
134163,32.77512,-117.25107,2 Levels of WaterFront ‚òÜ Exclusive Patio ‚òÜ A/C
193481,44.927073483009934,-93.156859863631,Cozy Saint Paul Studio
137521,32.75061,-117.13342,Best of North Park- walkable w/parking!
99136,40.74853,-73.97904,Lovely and spacious studio @Park Avenue (Midtown)
212435,36.21929,-115.20806,Affordable Place
185665,47.6106819,-122.3415914,"Downtown 1BR w/ Gym, W/D, walkable location"
215989,36.03646,-115.17339,"(1x08) Minutes to Strip, T Mobile Arena, Allegiant"
173444,30.29516,-97.70475,Landing | Modern Apartment with Amazing Amenities (ID704512)
3106,37.79285,-122.43445,1BR Condo Heart of Pac Heights * W/D * Walk Score 97
181962,45.50583,-122.63052,Modern Apartment in Prime Location (ID2439X76)
35629,34.05485,-118.10507,"3Bed, 2Bath Delicate Modern Home for 6 in Rosemead"
139872,32.74287,-117.18379,2 Separate central Flats - side by side
22857,29.99201,-90.07005,The Big Easy-Close to Everything
111803,37.38423,-121.88976,MSP2: Remodeled Executive 4 bd/3 ba Home
212189,36.1271,-115.21976,Large cozy ranch house
28743,34.04766,-118.25028,Downtown Los Angeles - Historic Core Loft
174735,30.22529,-97.74432,Stylish 2 Bed Townhome with Pool & Tennis Court
125039,41.50277,-71.29711,Townhouse 17
135598,32.7889,-117.25489,Mid-Century Modern 1BR/1BA Beach Apartment
72003,40.66714,-73.9308,Parkway Chic ( 2 Bedrooms)
77200,40.83026,-73.8238,IDEALLY LOCATED COZY COTTAGE
138179,32.7043134,-117.1494857,The Terracotta Clubhouse
110979,37.23811,-121.81443,"Cheerful 3 bedroom, study, 2 bath open floor plan"
208999,26.01615,-80.11584,Worth Traveling| Hot tub & Unique Rooftop pool
101285,40.75869,-73.98303,Steps From Times Square and all transportation
97276,40.60791,-73.96396,Loverly 3 Bedroom Apartment Centrally Located.
173513,30.231619,-97.775818,"SOLA
HOUSE"
126990,41.49087,-71.31975,CW Long Wharf Resort | 1BR/1BA Double Bed Deluxe
173854,30.23199,-97.73308,La Riverside Townhome Condo - 2/1.5
35795,33.98945,-118.4752,Venice Landmark Steps to the Beach
139141,32.748922059296056,-117.19135826642994,Modern Comfy Apt In the ‚ù§Ô∏è of Old Town w/WiFi+Cable
208287,26.13992,-80.11231,¬∞Adorable Studio¬∞ Close to the Beach W/ Parking
138014,32.80914,-117.17479,Easy Cruiser
176000,30.25567,-97.73775,"Sunny, Spacious  King Condo Suite * Pool * Kitchen"
221553,36.1222909,-115.1836821,Luxury 4 Bedroom Presidential Condo New Years Wknd
183365,47.65836,-122.31606,UW Elegant & Clean  (48)
22497,29.97825,-90.10458,Furnished Studio Steps to NOLA Hot Spots
185762,47.62354,-122.30091,Urban Oasis in Capitol Hill
51773,33.97977,-118.46681,Venice Beach Getaway Steps From Sand
44335,33.95661,-118.44433,Walk to Beach From Big LA House-4br+2ba*Top Locale
156829,41.91394,-87.78921,Cozy Family Friendly  Home in Chicago (Galewood)
66347,34.0964,-118.36403,1BR Hotel Style Living in Weho
87874,40.74435,-73.82452,New Beautiful 3-4 Bedroom/Outdoor Kitchen! Parking
1691,37.77726,-122.499298,Peaceful Zen Garden Flat to Charm and Recharge You
150561,37.10187,-121.92829,Cozy Guest Suite L1 45acre Redwood Retreat Wi-Fi
76141,40.67645,-73.95071,Bergen street in Crown Heights - French speaking
86838,40.72106,-73.97981,‚ù§Ô∏èCozy 2bd Apt in the Village! ‚ù§Ô∏è
97673,40.71851283177056,-73.99597709362786,Sunny Apartment in the Heart of Downtown NYC
224175,36.11519,-115.19999,VF15 Strip View Studio/No Resorts Fee/Lobby Bar
227264,42.36033,-71.06717,Lovely beacon hill 2 bed 2 bath apt in boston
153306,39.73285,-104.95592,Historic Dutch Victorian
226641,42.352093,-71.06081,Bright 1BR | Work Desk + WiFi | Downtown Boston
136368,32.74399,-117.04953,Cute Studio Centrally located
148181,36.19409,-86.63015,Brand New Renovated Apartment
11903,38.95319,-76.99235,"1 Bdrm: half mile to red, grn, ylw line trains"
224033,36.1127,-115.26111,30 Day+  Newly Remodel Condo
29285,34.18973,-118.5526,Gorgeous modern house W/SPA& big yard @heart of LA
74365,40.7068,-73.9022,Lovely large 2BR in Ridgewood Close to Subway
49194,34.05275,-118.44448,Gorgeous high ceiling LOFT (spa/pool/parking)
231113,37.59584,-122.5123,Ocean Beach View Paradise Retreat 5 Star Host!!
144788,36.12829,-86.855,Hillwood Hideaway | Near DT Nash & Music Row!
214982,36.11754,-115.16445,Standard King villa- Close To LV Strip
178912,45.55608,-122.67369,"Lovely home in walkable, vibrant neighborhood"
209253,26.12866,-80.12681,8 min to Beach - Pool / Grill / Outdoor Seating
5371,37.73108,-122.38854,Private spacious modern apartment w/ sep. entrance
6511,37.7884,-122.39082,Art deco oasis in downtown SF
122987,39.95271430239836,-82.99425281864403,The Marienplatz -German Village + Parking
8927,38.92777,-77.02475,Explore DC from this Stylish English Basement Apt.
18275,29.95449,-90.07385,Albert's Entire Place
208288,26.21232,-80.0925,International Sand Dollar- SAVOR YOUR AMAZING VIEW
146725,36.18701,-86.81283,Tulum Vibes ‚Ä¢ Hot Tub ‚Ä¢ 8 minutes to Broadway!
77353,40.6781,-73.90884,You'll never find studio with this price(Allyours)
184910,47.55636,-122.28696,Amazing Studio in Columbia City-Near Light Rail
141713,36.08052,-86.60812,"Spacious, Delightful Abode Ideal for Large Groups!"
4184,37.75959,-122.47815,Nice apartment (B) near/Golden Gate Park and UCSF.
5482,37.76306,-122.48215,3bd / 2ba Family Friendly Flat
55116,34.14604,-118.02261,Entire Guest House
46641,34.08681,-118.26768,Designer Home with Amazing Views in SilverLake
208613,26.22195,-80.09113,CW Santa Barbara Resort | 1BR/2BA King Bed Suite (
19546,29.93705,-90.07443,Lower Garden District Rental #2 Five mins to FQ
179044,45.53338,-122.68003,Lovely FURNISHED riverfront condo
219560,36.11512,-115.19835,Luxury 53rd Flr Condo Amazing Sunset View NO ReFee
44628,34.09499,-118.33394,Luxury House in Hollywood - Steps from Sunset Blvd
125130,41.82001,-71.4393,Modern & Comfy Apt For Your Group ‚òÖ Hosts 6 People
225748,42.37957,-71.04049,Big newly renovated 2 bedroom condo in East Boston
114788,37.2977813,-122.0047572,"Sunny, quiet, safe & convenient"
229288,37.61874,-122.41037,Jacuzzi tub- 10min to SFO; 20min to SF
10401,38.90254,-77.05255,StayAttache StayHealthy in Foggy Bottom
124451,41.6951,-71.40633,Home Sweet Home
100730,40.78384,-73.94696,Cute & Flexible Rustic Upper East Side Apartment
176173,30.25653,-97.71008,Beautiful East Austin Home with Yard
62140,34.68206,-118.21704,Bedroom with Kitchen and Bath
150388,36.9521,-122.03516,Mitchell's Cove Ocean Front Home ~Panoramic Views!
188715,47.584038865850665,-122.39931647567668,Original 3BR | Dog Friendly | Amazing Bay Views
229209,37.47244,-122.22975,* 2BR REMODEL w/ Vaulted Ceilings *
82315,40.68571,-73.93478,Newly Renovated Original Brownstone Studio Space!
31241,34.00676,-118.44771,Rosewood by Open Air Homes - Exclusively Month+
187270,47.53464,-122.27787,Welcome to Othello Station Townhome!
151257,39.73591,-104.97055,Capitol Hill Retreat
24241,29.95482027912453,-90.07378015550012,Family Break! City Base near Lafayette Square
29713,34.6258,-117.8304,Ranch-home modern/country living on a 1/2 acre
220314,36.12126,-115.18266,CW Margaritaville Desert Blue |1BR/1BA King Suite
9562,38.90085,-76.99947,"H St/NoMa Private Basement Suite, Free St. Parking"
42787,33.79529,-118.20148,Romantic Tropical Retreat with a Private Hot Tub!
126754,41.83165,-71.41406,Modern& Luxurious Apartment In Providence By Tempd
178196,30.27579609046268,-97.7561793326943,CW Austin Resort | 1BR/1BA King Bed w/ Gym & Pool
222230,36.1051,-115.16648,D32O1* Studio PH Floor w/StripView/Balcony/Pool
212394,36.10579,-115.17134,Polo Towers Suites/Villas - 1 bdrm *********
188944,47.57054,-122.40962,Alki Triplets
195483,26.30946,-80.08475,Casa by The Cove - 3/2 + Office
203363,26.0510443,-80.11343629999999,Waves On Walnut # 2-Beach access
60246,34.14763,-118.11211,3 BDRM Townhome in Prime Pasadena with Parking
47648,34.18161,-118.359,Sunrise home 13839 Bessemer
152268,39.75359,-104.96475,Contemporary detached 2nd floor apartment
120529,44.9428,-123.01631,Cheerful 2 Bedroom home in a quiet neighborhood
173592,30.22482,-97.70458,üíé Elegant&Luxe üíé 2BR/2BTH APT/7min Airport/DWTWN
46000,33.82421,-118.21939,"Coast Suite, Private Entrance ,  Kitchen&Bathroom"
160783,41.88396,-87.65401,"WELCOME TO A BEAUTIFUL, SPACIOUS 1 BEDROOM"
156484,41.9447,-87.65032,Wrigley Garden Unit
170162,30.23545,-97.74778,"Modern Townhome Easy walk to SoCo, Pool open!"
25920,34.06886,-118.35121,lovely 2 BR/ 2BA apartment in west Hollywood
230372,37.58838,-122.38167,Charming Home in the Heart of Burlingame
21671,29.99558,-90.05446,Classic Nola home minutes from the French Quarter!
163624,41.8902931846538,-87.62080686153315,S-Suite: LUX JR 1br Downtown Chi
87047,40.73552,-73.9571,"Family haven in trendy Greenpoint, Brooklyn"
70013,40.68183,-73.97224,Large Modern Brownstone Home in Prospect Heights
132766,32.76175,-117.15862,California (S)-San Diego-Mission Valley 2 Bd Condo
204348,26.05875,-80.20142,Ben‚Äôs Lavish mini Luxury Suite
93641,40.64198,-73.91183,Bev‚Äôs Place
99861,40.67019,-73.79838,‚ú®Enchanting Comfy Cozy Retreat W/ Parking‚ú®
145371,36.18114,-86.72925,A Gentle Breeze in East Nashville‚Ä¶
59472,34.08524302303453,-118.19311955274205,Hillside Home in Rural Los Angeles
137857,32.7504,-117.24297,"Cozy cottage, 3 blocks to beach, bring the doggies"
2173,37.76909,-122.4436,Large One Bedroom on Buena Vista Park
15228,37.804794,-122.195663,Lovely and quiet studio with queen bed and sofa.
186594,47.53103,-122.39052,Long Stays Full Kitchen Lincoln Park Alki Beach
74891,40.73424,-73.98569,Classic Gramercy Studio
160721,41.94004,-87.65423,Delightful 1BR/1BA Apartment in Belmont
82637,40.70765,-73.94257,Modern 2BR Williamsburg  Loft With a Balcony
51680,34.01324,-118.41813,Explore the City from a Sunny Palms Apartment
54447,34.07783,-118.2766,Siverlake home close to Hollywood
18987,29.96228,-90.03536,"Location-1.4miles-French Quarter,3blk Charters St."
131548,32.80446,-117.20996,Modern Beach Villa on Mission Bay San Diego
75902,40.69651,-73.99288,Brooklyn Heights for Christmas
11563,38.916,-77.01788,"Elegant, Historic Townhouse in Heart of DC"
151937,39.71743,-104.98485,Live the good life at this beautiful garden apt.
174477,30.29839,-97.69804,Beautiful home in Mueller close to everything!
29270,34.05440972077056,-118.2345263287425,Lovit Porsche Themed 2B 2Bth Resort Amenities
5032,37.76942,-122.4312,Best Location 2BR Apartment ‚òÖCentral‚òÖQuiet‚òÖSafe
32716,34.01222,-118.30013,Cozy Studio
69082,40.69962,-73.90545,Spacious & Cozy NYC Apartment in Brooklyn/Queens
91008,40.70068,-73.75677,"Entire Guest Suite *close to JFK, LGA, AQUEDUCT"
125156,41.48899,-71.31492,Classic apartment in Newport Downtown #503
101433,40.66024,-73.74758,The Royale Tee Oasis
179951,45.558,-122.63831,Walk to Alberta Arts~SilverStar Cottage~Fireplace!
119982,35.63083,-82.6287,Green Door cozy Farm Suite in Asheville HOT TUB
154249,39.75612,-104.95941,Private and Relaxing Space in North City Park!
146365,36.10548,-86.74822,*SUPER CuTe & cOoL COTTAGE + White Picket Fence!!
207178,26.14914,-80.12843,Large w/King Beds and workspace near Wilton Manors
108610,40.74264090269048,-73.98608384864768,Trendy Studio Apartment
150380,36.968029,-121.998207,"The Commodore‚Äôs Cottage, Stroll Twin Lakes Beach"
70705,40.70382,-73.91363,Bushwick Gem
20719,29.9514,-90.07208,Unit 201 The 820  2 BR Near the French Quarter
84071,40.77188,-73.99072,2 Bedroom Modern Apt w Washer/Dryer in UWS
23343,29.96157,-90.05911,Historic 2BD Condo w/ Wrap Around Gallery
203274,26.15877,-80.31556,Spacious Resort Condo in Sunrise
81735,40.71247,-73.99398,New Spacious 1BD w/ Private Bathroom Chinatown/LES
125335,41.18143,-71.57199,The Historic MacGregor House on Block Island
199076,26.11393,-80.15503,Modern Waterfront Masterpiece w/Pool - Boat avail.
54570,34.00885,-118.22848,L.A Breathtaking VIEW 2BD/2BA with Free Parking!
158498,41.90413,-87.70981,Plant Oasis (No Chores/No Cleaning Fees)
207043,26.19276,-80.14979,Adventure-Lover's Paradise
208389,26.31311,-80.07646,"107 Ocean Front,  between  Boca and Ft. Lauderdale"
76350,40.69303,-73.9541,Spacious Master Bedroom 20 mins. from NYC
37489,34.2033,-118.43552,Relax | Sleep | Swim in modern & comfy LA oasis
76909,40.66146,-73.95063,"Beautiful, Two bedroom apartment Brooklyn P.L.G"
61346,34.27084,-118.45431,3 Bedroom & 2 Bath Great Home away from Home
152090,39.76466,-105.02881,Vibrant Neighborhood- 2.3 miles to Downtown
185349,47.65668,-122.34764,Gorgeous Fremont condo with all the amenities!
200510,25.9894,-80.11786,NICE AND QUIET ***OCEAN FRONT CONDO***
197637,26.13423,-80.11136,Galleria Villa-Walk to the Ocean-Boat Show
129639,32.7465378,-117.1701492,"Spacious, Close 2 Everything, Superb Location!"
44046,33.86933,-118.40122,"Excellent Locale, close to beach and town!!"
114236,37.29997,-121.92941,3 Story Townhouse - 2 bed - 2.5 bath - garage
81036,40.74185,-73.92569,"Cute, clean and sunny one bedroom with character"
59461,34.08668,-118.3678,@Ktown@$NEW with LA VIBE 3 B- 3B
157720,41.94917,-87.65947,Great 2bedroom in Wrigleyville  Southport Boystown
108478,40.75575690215952,-73.99239442779646,Standard Room with 2 Double Beds at Holiday Inn Express Times Square
63075,34.10393,-118.36761,THE HOLLYWOOD LIFESTYLE! 1MONTH MIN
38423,34.07308,-118.28976,3 bedroom Mid-Wilshire Charmer near Downtown
19545,29.92513,-90.08323,Quintessential New Orleans Home on Magazine
64888,34.204296,-118.506187,WOW! Stunning 3 Bedroom Modern Home In Lake Balboa
185886,47.63505,-122.38949,Magnolia Home With Charm & A View
157113,41.95346,-87.65727,Wrigleyville townhome two blocks from ballpark
214449,36.17243,-115.21747,Home Near Downtown Las Vegas
62796,34.09336,-118.35382,‚ù§KTOWN ‚ù§3 b3b COZY TOWNHOUSE‚ù§
119519,35.54966,-82.48972,Asheville's Cozy Retreat w/Sauna
101058,40.73429,-74.00065,Modern Studio in heart of West Village
7231,38.91722,-77.00295,The Perfect Capitol Hill Apartment
54469,34.06682,-118.28257,Spacious Artsy Loft ‚ù§Ô∏è  of the city
192036,44.92434,-93.31445,2 bdrm condo w/ Lake View in trendy Linden Hills
106008,40.73713,-74.00598,Gorgeous West Village Townhouse
94984,40.77219,-73.95779,Lovely 1-bedroom apartment in UES New York
205074,26.2239352,-80.1734257,Luxury Sun Lit 3/3 w Lake Views
98446,40.66065,-73.98963,"Family Friendly Townhouse in South Slope, Brooklyn"
123654,41.48875,-71.31542,Colonial Newport Townhouse
31109,33.96989,-118.45012,‚ôï Riva Virtus 65' Yacht - 6HR Day Trip - Marina Del Ray üåä
4726,37.71234,-122.39937,One bedroom house in SF
196620,26.05321,-80.20677,STEPS to Hardrock Guitar! New Designer Apartment
37017,34.21199,-118.62483,Family Friendly 4 + 2 w/Huge Yard
209046,26.12767,-80.1028,NEW! Stylish Beach Condo w/ Balcony & Ocean Views!
61743,34.1426,-118.10003,üß°Modern 2BR/2BAüß°Wi-Fi‚ú®Premium Location‚ú®Parking
84077,40.70671,-73.94499,Urban oasis - unique and very special home in BK
162819,41.95561,-87.64968,"Close to Wrigley, full furnished studio"
209002,26.19786,-80.12659,'Hotel Helene' is a small comfortable studio
38939,34.20516,-118.47345,cute lake balboa apartment
28286,34.10981,-118.11623,"10 min: JPL, CalTech, PCC, Santa Anita Race Track"
144656,36.15498,-86.82209,‚òÖHUGE LUXURY 4 BEDROOM HOME‚òÖ14 BEDS‚òÖROOFTOP DECK!‚òÖ
13303,38.91774131132698,-77.00666381132632,Charming Cherry Blossom Suite
146717,36.14202,-86.76187,Hart Suite Buyout 5 by AvantStay | 2 Townhomes
105724,40.61484,-74.0045,Charming 2 bedrooms Entire/Apt in Brooklyn
93542,40.74168,-73.99964,Beautiful Furnished Studio in Chelsea #6145
52471,33.97796,-118.46164,Amazing High Rise 1 Bed/1 Bath Venice Beach
54572,34.042,-118.56049,Walk to the Beach - Ocean View - Rare Gem
2602,37.74639,-122.42864,Cozy suite in the heart of Noe Valley
144628,36.17234,-86.79672,S1) NEW HOME 4BR/4BA Huge Rooftop Great Views
208533,26.1285,-80.10748,Fort Lauderdale Yacht & Beach Club 316
29794,34.11071,-118.20105,Lovely treehouse in Highland Park hills
76804,40.81992,-73.92809,"‚õ±No Full Kitch | Walk+Transit Score 97, 8min‚ÜíYanke"
225063,42.34568,-71.07169,* Brownstone Classic South End
168601,30.3037,-97.71901,Vibrant Home Close to Downtown Austin
230808,37.56962,-122.33,‚òÖ8min‚ÜíSFO‚òÖFast WiFi‚òÖParking‚òÖKitchen‚òÖSelf Check-In‚òÖ
185072,47.67434,-122.29607,Spacious Bryant Retreat
24471,33.72514,-118.28659,Studio Marina Proximity.Blackout drapes.Streetprkg
149247,36.9654,-122.00355,"Harborview, steps to Seabright Beach in Santa Cruz"
42800,34.05751,-118.30065,The Spirit of LA - 1Bdr urban creative dream pad.
130637,32.81196,-117.25984,San Diego La Jolla - blocks from Ocean Bird Rock
195606,26.24957,-80.09913,Cozy and Peaceful Home Near Beach
181076,45.474503,-122.605972,Modern Gem 3BR & 2 baths
196027,26.24916,-80.08823,"Enjoy the Beach, Sunshine & Warm Weather!"
209983,26.2171198,-80.23073409999999,New Star Suite Three
173092,30.46656,-97.68534,Landing | Modern Apartment with Amazing Amenities (ID815374)
182919,45.51950416212218,-122.67005934803592,Wyndham Portland Waterfront Park Resort | Studio
208649,26.13868,-80.13272,Lil' n' Cozy ‚ù§ w/Backyard | Near Beach & Las Olas
159085,41.8860812,-87.63422229999998,"Loop Studio w/ Pool, Gym, nr. Theatre District"
170879,30.21914,-97.6994,Chic new 3 bed home minutes from downtown & COTA
187801,47.52689658477336,-122.32715165131224,2bdX2bth plus Bonus RM 10 Min Downtown and Airport
89819,40.74822,-73.97524,Nicely furnished studio in NYC
15828,37.78989243656687,-122.22692318918536,G2-Cozy & Comfy studio in Safe & Quiet area
98860,40.65865,-73.73462,Luxury 3 Bed 2 Bath First Floor Unit with Patio
19233,29.93411,-90.07201,Casual Comfort in Historic Lower Garden District
42533,34.04659,-118.52852,810B Pac Palisades Village Villa Near Seashore
33875,34.08502,-118.12017,1 bedroom 1 bath private unit
175332,30.33618,-97.7046,Newly built home with spa shower and carport
169978,30.29139,-97.64148,Modern  3B/2.5B House in East Austin
17949,29.96601,-90.09198,Mid City 4 BR Close to Canal Street
87950,40.72106,-73.99392,Heart of Soho. 3 Bedroom Apartment
95447,40.59654,-73.79913,Lovely 3 bedroom rental unit with free parking
174413,30.19464,-97.75139,Remodeled SE ATX 5 bd home! Family & Pet Friendly!
110959,37.39764,-122.11362,"King bed 4 Br& 2 Ba, in prestigious  No. Los Altos"
201341,26.01636,-80.11805,CH- Brand New Luxury Condo With Partial Water View and Just Steps From the Beach-64038
137399,32.71566,-117.15312,Modern Loft Style Condo in Heart of San Diego
50761,33.99994,-118.33963,Memory Foam Beds+Free Parking-In the Heart of LA!
196840,25.98683,-80.1202,TWO 2BR Oceanview- Mobility Suite at Hyde Beach
86198,40.77595,-73.95559,"UES 1BR w/ Gym, Playroom, Roof, nr. Hospital"
36313,34.62834,-118.23976,Luxury Custom Built Vineyard Villa 4 bd 3.5 bt
222731,36.05728,-115.26475,Spacious 5B3B Vacation House
47449,34.0486816,-118.242241,"Downtown 1BR w/ Gym & W/D, next to Broad Museum"
85729,40.58935,-73.79265,Beach view house in NYC
108716,40.773966393773016,-73.98172301128322,Cute 2BR by Lincoln Square
101344,40.74481,-73.99955,Sun drenched studio in prime Chelsea location
53712,34.01847,-118.47421,3 Bedroom Apt (Ocean Breeze 7A)
230591,37.45011,-122.22297,Cozy & quiet garden studio in Redwood City
189113,47.61301319466287,-122.31493909534548,Hip & Fresh in Fab Location!
184487,47.60893,-122.33998,Luxury 1BR Bayview Washington State Conv.Center 1
77269,40.75104,-73.93771,Room with a view
105984,40.8058,-73.9556,Beautiful NYC Manhattan Studio
56448,34.1204,-117.70794,cheerful 3 bedroom  free parking near college
228319,42.36028,-71.1486,Luxurious&modern with balcony on the charles River
158609,41.9498378,-87.65651129999999,The Crash Pad 1 min walk to Wrigley Field
168807,30.27892,-97.76881,Eclectic STUDIO with an AMAZING Location..!
131906,32.79766,-117.2498,Perfect Location! Charming PB Home!
154817,39.76013,-104.96462,Monthly 2B near Rino*Pet*Garage*Yard
154088,39.75663,-105.05225,Newly remodeled 2 bedroom lic24390
11788,38.90567,-77.0576,Sonder Georgetown C&O | One-Bedroom Apartment
190111,44.941673278808594,-93.30154418945312,"Fabulous Uptown 7BR, Sleeps 15! Location, Location"
96031,40.78312,-73.98338,Homey Studio Apt in Upper West Side Townhouse
11468,38.88084272697656,-76.98903088911102,"Chic home with workspace, fireplace, and location"
215716,36.06043,-115.13784,Personal private suite/close to strip
46566,34.1651,-118.5333,*Mediterranean Tarzana Villa perfect for Families*
178468,36.61971,-121.9088,3859 Beach Bungalow - Perfectly Located Pacific Gr
230326,37.50999,-122.47281,"Casa Blue: Relax, Rejuvenate and Retreat"
202725,26.24114,-80.08826,Pompano Beach Deluxe 2BR Condo
162653,41.99949,-87.69024,Chic|Comfy|Stylish| 2BD 2BA - Little India
156588,41.84876,-87.62278,The Cunningham
186885,47.61652,-122.29444,Dog-friendly Duplex dive - Seattle/Madison Valley
51159,33.7665159,-118.1819627,"2 br. Condo, Beach, Marina,  L.B. Convention Ctr."
5517,37.79025,-122.42544,Oasis 1 Bedroom Lower Pacific Heights with pool
154481,39.73268,-104.95905,Lovely 2 bedroom in the middle of Cheeseman
168288,30.20745,-97.81733,Cozy South Austin Retreat
157376,41.88555,-87.64192,Annex I
65585,34.0821,-118.3646,Beautiful Spanish House 2BR/2Bath+2 Gated Gardens
40766,34.05513,-118.29694,Brand New Condo in Mid K-town with Panoramic View
130488,32.77226,-117.24875,Island Court Cottage II Best Location! Super cute!
193821,44.9487135,-93.1895686,Marshall Lofts Upscale Apartment
46117,34.19386,-118.39354,Perfect for long term rentals 2b1b in NoHo!
223766,36.14807,-115.15382,"4 Spacious Suites w/ FREE Parking, 2 Pools, Casino"
192784,44.95929,-93.23764,El Atico - bright & private loft
135158,32.7163392,-117.1540942,"Downtown Condo in a High-Rise, Free Parking"
87440,40.66296,-73.83533,Spacious apartment near Manhattan and JFK Airport
105987,40.71287,-73.95407,"Sunlit, top floor, spacious apt!"
90206,40.68341,-73.93046,Lovely Back Studio
206246,26.12014,-80.12357,5BR Charm with Heated POOL and Lakefront
14490,37.8333,-122.26162,Luxurious Modern Minimalist Studio
188263,47.63616,-122.36892,NEW! 3BR Great Location Queen Anne W/Rooftop
63597,34.09028,-118.38009,"Discover LA! Swimming Pool, Pet-friendly, 2 Units!"
82560,40.74814,-73.94507,Luxury Apartment - 12 Minutes To Times Square
95790,40.74313,-73.98466,Lovely 1br in the heart of NoMad with fireplace
115865,37.39938,-121.91942,Lovely studio rental unit with pool and gym
196820,25.98768,-80.11792,Stunning 2/2 condo w Ocean View to Hyde Beach
148631,36.1265259,-86.7780228,Luxury Condo w/ Pool * Newly Renovated! *
1849,37.73333,-122.39363,Real SF: renovated gem
227417,42.34942,-71.06895,"Excellent Location, Stay In Boston's Bay Village"
213602,36.10557,-115.16792,A35G3 Signature at MGM Studio/Pool/No Resort Fees
138640,32.57759,-117.0329,Luxurious 5BR Oceanview | Pool | Hot Tub
154475,39.73834,-105.03662,Cheerful 2-bedroom residential home.
2785,37.74691,-122.4251,SF Mediterranean Oasis w/ Garden View
149655,36.97143,-121.90341,Beach Comber 200
146070,36.154388,-86.764206,Colorful Condo + Rooftop + 5 minutes to Broadway
91977,40.73241,-73.849,NICE 1 BEDROOM IN FOREST HILLS UP TO 5 PEOPLE
206613,26.004873,-80.124519,Deluxe 5BR Villa Heated Pool near Hollywood Beach
40664,33.9435,-118.36522,Entire Apartment - Inglewood 2 bed 2 bath near LAX
190673,44.9635124206543,-93.28360748291016,Huge Modern Villa in Downtown| Convention| Stadium
92323,40.70929,-73.94732,Cute Williamsburg ‚ÄòU‚Äô Apartment
130196,32.74276,-117.25235,OB Blue BeachHome 2 Blks to Ocean
202656,25.98965,-80.11809,Wonderfull 2 bedroom 2 bathroom Apartment
111770,37.35519,-121.88555,2 Bed / 2 Bath & Central AC Apartment+Sports TV ..
174918,30.36753,-97.91417,"Waterfront Lake Home, Private Beach, 2-Story Dock"
50024,33.75479,-118.13413,"Cozy Boho Beach House: Steps from the Beach, Dining and Shops"
58447,33.97473,-118.37032,Modern Peace and Release Space
146136,36.18049,-86.74698,"Modern, walkable, private East Nashville treehouse"
56666,34.09068,-118.12338,Guest house with private kitchen/bath.
40069,33.991,-118.43372,Charming Mar Vista Bungalow with Garden Oasis
207284,25.99389,-80.14141,716 Art of Hallandale with Free parking
64240,33.94302741081214,-118.3151023897671,"Ruth's House - close to Rams Stadm, Forum + LAX"
23950,29.966819850946624,-90.08395437301635,Brand New Mid-City Luxury House
119963,35.4745,-82.56654,South Asheville Getaway | Private Balcony Apt 2
78981,40.72657,-73.95313,Lovely spacious apartment in prime location
113420,37.43106,-122.12505,Renovated 1 Bedroom Apartment Palo Alto S78 Stnfrd
34539,33.99052,-117.91829,Private entire 2bedroom2bath apartment 2ÂÆ§2Êµ¥Áã¨Á´ãÂÖ¨ÂØì2
33314,34.14478,-118.09849,"3 bed 2.5 bath Pasadena: CalTech, PCC, San Marino"
55772,34.19849,-118.46688,Comfy Studio in LA
193982,44.95599734716059,-93.31421663157492,MINNeSTAY* Kenilworth Place | Luxury | Lake View
27778,33.81048,-118.2785,"2 Private Rooms, Ideal to Rest, Excellent Location"
223181,36.12388,-115.28711,Art-inspired&Centrally located HOME in Las Vegas!
34461,33.94842,-118.31412,"Spacious, Comfy + Centrally Located LA Guest Suite"
44097,33.77729,-118.14517,Lovely 2 Bedroom Home.Just MINUTES from the Beach!
75848,40.76438,-73.86357,Lauger's Oasis Private Suite
210886,26.1344,-80.14569,2 Pool Compound w/ 7 rooms and 6 Baths Sleeps 20!
159686,41.89132690429688,-87.6378402709961,Level- Modern Executive One Bedroom & Office
112503,37.34292,-121.98311,Santa Clara 2 Bedroom with Pool
141104,36.19937,-86.63452,Entire home 18 Minutes from Downtown with a deck!!
216772,36.12597,-115.23432,"Newly Remodeled Home W/ POOL, 10 Mins to The Strip"
199867,26.18016,-80.12943,"Close to the Beach!  Heated pool, tiki bar, & BBQ"
165270,30.25444,-97.71725,InnerCitySXSWMusicSLEEPS6/EastAustin/CleanDEAL
205298,26.10882,-80.15111,"Blue Cabin w Hot tub, 6 mins from Airport & Cruise"
146062,36.18404,-86.79538,"Modern Mamba | In Germantown, Mins from DT Nash!"
137992,32.82402,-117.17583,NewEntire House in San Diego w/AC HOT TUB & Gazebo
205904,26.10586,-80.13569,"Beach, Yachting, Convention Center"
24916,33.959,-118.38141,Newly Renovated 4 bed 4 bath Home Near LAX
220744,36.15175,-115.15115,(C11) 2 bedroom walk to LV strip convention center
36504,34.22485,-118.58854,Lovely one bedroom pet friendly apartment
157578,41.9345,-87.72006,2F ‚¨ñ Modern Apt with Sunny Deck. Dogs stay free! ‚¨ó
155798,39.74215,-104.96108,Stylish Uptown apartment
131086,32.78693008422852,-117.25302124023438,HIP  MISSION  BEACH CONDO AC PARKING BOARDS
88222,40.68693,-73.91461,Studio space in bushwick: creatives welcome
227066,42.362797,-71.049721,Houseboat Capricornus:  Amazing On Water
113379,37.34702,-122.07344,3BR Mid Century Ranch Style Home Sleeps 8 Great Vibe
107049,40.89629866054645,-73.85071351736042,Spacious 1 BR with kitchen/bath
49653,34.04194,-118.38732,2BR Apt Beverlywood by Just Bring Your Toothbrush
108453,40.77278443761755,-73.9534499708829,317-1A New Modern 1BR W&D Walk to Central Park
218852,36.80154,-114.09174,Sweet Suite Mesquite
39728,34.1613062,-118.5045974,True Luxury Living-5 bedroom and 4 1/2 bath house.
122887,39.99349,-82.99943,Amazing Newly-Remodeled Downtown Columbus
121188,39.94912,-82.98491,GermanVillage_Private Parking Children'sHospital D
163950,30.25288,-97.78491,Barton Hills oasis! Bike/scooter to Zilker Park!
141621,36.15003,-86.8548,Sanctuary in the City - Pets allowed
175105,30.23774,-97.75946,Crow's Nest South Austin
115664,37.44656,-122.13716,"Charming, spacious, cozy 4BR near Stanford"
175029,30.25595,-97.7116,Walk to Town Lake and nightlife- stylish condo
138575,32.85619903238928,-117.20344377395683,"La Jolla UTC w/ Pool & Hot Tub, Parking, King Bed"
180944,45.53119,-122.6203,Private Laurelhurst Studio With Hot Tub/Patio!
177664,30.284991108554543,-97.74760636846418,West Campus 1 Bedroom Apartment
146747,36.15801,-86.66385,The Donelson Cottage
148663,36.17705,-86.75874,City 3BR 4th-Floor | Rooftop Terrace
64113,34.07224,-118.39156,Lovely Modern 2 bedrooms 2 baths unit in Hollywood
192718,45.0488510131836,-92.80604553222656,LITTLE RED HOUSE - CHARMING STILLWATER GETAWAY
25268,34.10084,-118.35072,"Hollywood 1BR w/ Pool, nr metro, restaurants"
196035,26.20524,-80.250038,Delightful 1-bedroom camper/RV indoor fireplace
127748,32.7136,-117.15957,Gaslamp Gem/1BR/1BA/Remodeled/New Everything
115273,37.39887,-122.09058,Furnished 2/1 Apt #2 by downtown Mountain View
52373,33.99635,-118.45978,"Zen Cottage, Venice Beach Tropical Oasis - WITH AC"
63971,34.08518,-118.37153,Private West Hollywood Bungalow
185748,47.67854,-122.32422,Remodeled Quiet Cozy 2 min walk to Greenlake #8
80866,40.66539,-73.9583,Awesome Apartment near Prospect Park
55929,33.79584005429173,-118.19676272603223,Pets Stay Free Long Beach + Parking
111626,37.35579,-121.83982,Warm 2BR/1BA house Silicon W/D parkin near SJ town
76436,40.82364,-73.94993,Beautiful 1br in Manhattan!
191900,45.06901,-93.36021,Pet Friendly Property Close to Dwntwn Minneapolis
28463,34.06037,-118.38476,Large Hotel Style Suite
4658,37.7407,-122.45124,Spacious studio+garden+parking at peaceful SF area
98757,40.68603,-73.94495,Bed-Stuy Gem! 3 Bedroom 2 bath prime location
206212,26.11194489294806,-80.12368965020494,March Discount! Rio Vista w/ Water views
80529,40.78999,-73.95021,Private full 2b/2b apt near Train & Central Park
14961,37.82098,-122.2626,Oakland 1BR with Modern Furnishings Near BART
207905,26.21257,-80.1025,"PEACEFUL OASIS-10 min to beach, perfect 4 families"
61417,34.09063,-118.34369,Central Hollywood Cozy 1 bed studio
133330,32.74209,-117.25255,Sunset Cliffs Cottage in a Prime Location!  #11
181436,45.5146,-122.67681,Pet-Friendly 1BR in Portland Near Parks & Shops
179337,45.48152,-122.64528,Private Basement Apt in sought-out SE Neighborhood
53342,33.34534,-118.32866,Catalina Three bedroom home  with Hot Tub and Golf Cart
4289,37.79522,-122.41417,Sunny 2 bedrooms with 2 balconies .
27031,34.06045,-118.38493,Three Bed Family Style Unit
217687,36.09423,-115.05364,Ramos family house
217268,36.16359,-115.23204,Newly Remodeled/Beautiful house near Everything!
1507,37.77872,-122.39889,Loft with Sophisticated Design
53027,34.04461,-118.45072,Studio Apt in WestLA by Just Bring Your Toothbrush
45954,34.02297,-118.49109,New modern luxury 1  BR in Santa Monica
159514,41.8974,-87.6995,2 Bed Garden Apt in West Town
218506,36.12743,-115.29988,Cheerful 3 BR 2 BA 2 car garage home in Las Vegas
127517,41.49002,-71.31975,CW Long Wharf | 2BR/2BA King Bed Suite
133741,32.71904,-117.0314,‚òÖEXQUISITE 2B1B FULLY RENOVATED HOME IN SAN DIEGO‚òÖ
61290,34.11135,-118.36941,SUPERHOST Monthly Rental-Dream Home Luxury Mansion
184463,47.53322,-122.27917,Private Bedroom/townhome! Mins away from station!
174833,30.2553,-97.72324,Unique East Austin Unit Steps from Lady Bird Lake!
78135,40.72057,-73.95558,Light Filled Designer Apartment
127033,41.50358,-71.2799,Cosy 2 bed Cottage - Close to Newport & Beaches
144765,36.04545,-86.67888,Music City Lifestyle
99254,40.76718,-73.98491,"Beautiful apartment, 5'away from Central Park"
96261,40.72073,-73.94606,"Stunning, Bright Luxurious 1 BR/ 1 Bath w/ Balcony"
58321,34.20805,-118.51738,Cozy Private Guest Studio
67224,40.72682,-73.98372,NYC studio in St Marks Place & 1 Ave
7987,38.91394,-77.07326,Beautiful DC Home near Georgetown Univ
77394,40.73154,-73.86947,My Sweet Room
122009,39.99392,-83.00082,The Polonius-pet friendly-near OSU-high speed wifi
181999,45.554653,-122.654266,Guest suite with private entrance in inner NE pdx.
24826,34.038929,-118.668381,Malibu Sand  Carbon Beach - Huge Spa
40558,34.09828,-118.31925,Hollywood Modern Townhome
143540,36.12583,-86.77786,Minutes From Downtown - Newly Remodeled Studio
195557,26.01476,-80.12387,4 bedroom 1 mile to Hollywood beach margaritaville
114558,37.45345,-122.1551,Downtown Victorian Style Duplex
19254,29.93404,-90.08109,Avenue Plaza Resort- Studio sleeps 2
224074,36.12244,-115.18389,2Bedroom Condo Desert Blue Resort!
92084,40.59088,-73.78667,Beach Hut
137786,32.74734,-117.24859,Modern Condo in the heart of Ocean Beach
15979,40.724545,-74.03591,Contemporary 1-BR Downtown J.C.
81027,40.716,-73.8568,Spacious home in quiet Forest Hills
127257,41.47904,-71.31529,'Lisa' downtown 2 bed
189780,44.99739,-93.28104,Diamond in the Rough (Modern Loft) 5 min from DT
87593,40.7604361,-73.96852299999999,"Sutton Place 1BR w/ Gym, Pool, DM, nr. Central Pk"
90542,40.64256,-73.94523,Best of both-quiet block & bus/train to city life
27351,34.06824,-118.39062,BEVERLY HILLS LIVING BY RODEO DR W/PARKING! üåäüèñüõçüçΩüé•üçø
230633,37.70278,-122.46983,Minutes to SF! | 5BR/5BA home -¬Ω block from subway
324,37.80497,-122.4369,Gorgeous Marina Home near the Golden Gate Bridge
36416,33.79736,-118.20313,Studio Loft w/ Private Bathroom & Backyard
65626,34.05834,-118.25223,Large 2 bedrooms 2 baths unit
62250,34.12323911655096,-118.18834693776743,"Clean, Cozy & Charming Highland Park Bungalow"
186505,47.614937,-122.34761,Upscale‚Ä¢Modern‚Ä¢Clean‚Ä¢Water-view‚Ä¢Parking‚Ä¢Secure
18916,29.97135,-90.08196,Studio 2 Lic #22-CSTR-18106/22-OSTR-20507
210552,26.129591,-80.130188,Welcome to the Coconut Cottage!
82281,40.71226,-73.94969,Modern Williamsburg Beauty
154838,39.73104,-105.0266,NEW! Welcoming Denver Home w/ Patio & Backyard!
54452,33.98899,-118.47326,beachfront Venice Beach studio :)
142311,36.15429,-86.82119,Beautiful DTown/12 Beds/Rftop Deck/2nd Home Option
59195,34.06046148282477,-118.35035034431375,Beautiful Stylish home w garden. Best location!
46125,33.90951,-118.36481,"LAX, Beaches, LA Sports, SoFi Stadium, Disneyland"
13249,38.9034,-77.00522,Steps from Metro 2BR  | near Union Station | Noma
150343,36.96266,-121.88965,Hidden Beach Neighborhood
206379,26.00708,-80.11719,**The Madison 1 - Extra Large 1 Bedroom Beach Apt.
168182,30.27634,-97.70624,Natural Light - Private In-Suite Bath & Deck
13144,38.8882351,-76.98801139999999,*Historic Gem* on Capitol Hill
93282,40.76453,-73.983658,Stunning 1BR Apt near Central Park
169203,30.25279,-97.74828,Sonder at South Congress | One-Bedroom Apartment w/ Balcony
103352,40.73901,-73.99004,Gorgeous Condo in Flatiron
9583,38.94831,-77.02268,"Spacious, Relaxing, 4 Bd 3.5 Ba Home In Petworth!"
35036,34.0809,-118.2631,Echo Park Guest Cottage (4.8 ‚≠êÔ∏èHost w/135 reviews)
65723,34.06297,-118.47296,Entire Executive Home with Parking & Lush Garden
147656,36.1492,-86.78104,Locale South Gulch | 2BR Suite K-T-T | No Fees
2322,37.78567,-122.41154,Convenient Studio Next to Hilton SF
164755,30.25976,-97.77286,Heart House: Top floor Patio View; King bed; 2
146886,36.15879,-86.87901,Two Spectacular Homes! 20 Guests - Outdoor Patio
65813,34.18525,-118.09808,HIP CHARM & COMFORT IN ALTADENA 1989
29497,34.08282,-118.5996,Unique Cottage in Topanga w/outdoor baths & yurt
74597,40.86869,-73.92848,Your own 2 Bedroom apartment available for 3 weeks
119333,35.59547,-82.55303,Magnificent S&W Building Condo In The Heart of Downtown Asheville
172915,30.25899434654968,-97.75482364094348,"Downtown home, heated pool + spa, walkable"
205762,26.11607,-80.14702,Livin' La Vida Local -Walk to downtown & Las Olas
126334,41.858109,-71.491501,Lovely Historic Vintage home. Remodeled inside.
17250,29.966976,-90.050941,üèäüèª‚Äç‚ôÇÔ∏èTropical Pool after Day N FRENCH QRT üè≥Ô∏è‚Äçüåà20STR-02763
156754,41.95056,-87.72431,Welcome to Chicago's smallest neighborhood...
204638,26.0294,-80.15435,Hollywood Home! | Close to Beach/Casino/Shops
7488,38.83988,-76.99506,Lovely Studio 5 min drive to Sites/MGM+Metro+Pkg
40103,34.15265,-118.3929,"Quiet, safe 2bd guest house w patio, gym, pets ok"
74331,40.8176,-73.94711,Charming Sun-lit Two-Story Apartment
147132,36.15519505127112,-86.77576452181147,"Spacious Downtown Unit, Amazing Balcony Views!"
44882,34.17767,-118.36898,Actor‚Äôs Guest Cottage  Spectacular Luxury
8500,38.93526,-77.05287,Rock Creek Studio
180057,45.52515,-122.6927,Large Studio in Historic Isam White House
181065,45.56078,-122.66309,New Daylight Basement Apt for Short or Long Stays!
156078,39.78948,-105.05916,ArTeZen Sanctuary
203984,26.035076141357425,-80.21542358398438,"Cheerful villa. 3/2  heated Pool, GRILL"
62836,34.05399,-118.34785,Guest House in Mid-City with Private entrance
8260,38.96908,-77.02492,"Merhaba Suite: Tranquil Studio, Fully Private"
56025,34.04607,-118.22223,Newly Renovated unit 2 bed 1 bath in LA! #10
151988,39.76012,-104.98418,Historic Boutique Apartment in Heart of RiNo
21199,29.95104,-90.06826,Balcony Suite in Downtown New Orleans - Walk to FQ
131396,32.8621,-117.21571,Townhouse in UTC/UCSD Area
193808,44.90578,-93.57264,MINNeSTAY* Gideon's Retreat-Excelsior | Sauna |
168916,30.34682,-97.75623,"close to communal pool, 7 minutes the domain A/C"
36742,34.01661,-118.49122,* COZY & SPACIOUS APT 8 MINS TO THE BEACH *
165152,30.24381,-97.75987,"Sunny, Private Guest Suite close to downtown"
176343,30.2840284,-97.581021,Lux Lounge Mini Estate @ Hollywood Village
156482,41.82453,-87.61734,Minutes from EVERYTHING!
133169,32.7943,-117.24269,Just Remodeled Bay/Ocean Paradise
144306,36.18958,-86.76519,Cozy East Nashville Cottage
161836,41.99713,-87.6917,Low Cleaning Fees - Modern NorthSide Studio Gem
121935,39.95687,-82.97343,First Class 4 Bedroom Home
25814,34.0705,-118.34572,"Private Entrance, 1 Bedroom, Kitchenette, Bathroom"
128940,32.75617562486593,-117.1195135355862,North Park getaway w/ off street parking & yard
52424,34.17114,-118.55325,Entire Tarzana Brand New Home Pets Welcome
8930,38.88561,-77.00135,Steps to Capitol 2BR Historic Townhouse Apartment
148451,36.17678,-86.7559,"4 room, 4.5 baths, Skyline City Views, 2mi to DT"
224158,36.12186,-115.18248,Wyndham Desert Blue | 4BR/3BA King Pres Suite
117946,35.61091,-82.63564,"Spacious, peaceful Private Entrance Suite-West AVL"
26617,34.11578,-117.91674,Spacious Sleek New Home in Azusa w/ King Beds
118147,35.61336,-82.64849,Modern Mountain View w/hot tub*
182544,45.60207,-122.66317,The Riverhouse ‚Ä¢ Pets Welcome!
881,37.75024,-122.42752,Lovely bright home in best location
230590,37.45447,-122.12581,Elegant & modern 1 bedroom unit
201695,25.9879,-80.11918,Miami Hollywood Penthouse With Intracoastal View
182047,45.54758,-122.51711,Incredible 1BR | First Floor | Patio
207366,26.12582,-80.12273,Grey House by the Water (Ft. Lauderdale Beach)
211161,36.10647,-115.16719,MGM Sig Studio Balcony Free Parking No Resort Fees
93842,40.811848,-73.929665,New! Queen Suite | Kitchenette | Gym |near Stadium
104312,40.87795,-73.84549,Beautiful one bedroom stylish apartment
28501,34.091053,-118.33596,"Hollywood 3br w/ pool, gym & w/d, nr Walk of Fame"
222819,36.12095,-115.18314,Wyndham Desert Blue | 2BR/2BA King Resort Suite
145616,36.20915,-86.76183,Spacious 2 Room house in East Nashville near DT
33222,34.0312851,-118.3295534,West Adams Mid-Century Bungalow
170213,30.31889,-97.72923,Lush Casita | Southwest Charm |Cozy ATX Stay
100417,40.68125,-73.93932,Brooklyn bright studio apartment!
78832,40.76333,-73.92274,1 Bedroom modern apartment in the heart of Astoria
110937,37.42962,-122.14959,Classic Private Victorian Cottage/Coach House
117192,37.381196698251394,-121.9612967350327,Camper old van gorgeous
27177,34.420325,-118.4527487,Gorgeous 3 Bedroom Condo!
25835,34.03601,-118.4181,Luxury Family House in Cheviot Hills
38929,34.1014,-118.32407,Luxury apartment in the heart of Hollywood
18845,29.96332,-90.05371,BEST DEAL! Large 5 BR! Steps from French Quarter!
19285,29.95268,-90.07337,#1513- SPECTACULAR - ORPHEUM PENTHOUSE SLEEPS 4
186923,47.62258,-122.33548,"SLU 1BR w/ W/D, Club Room & Gym, nr Space Needle"
49829,33.77355,-118.16874,New Long Beach Apt - Near Downtown & Beaches
186333,47.67252,-122.38206,Walkable in Heart of Ballard | 2BR/2BA Townhome
127428,41.8571652,-71.3921268,Spacious 3Bed-Eastside Hope St. Close to Brown
209262,26.18851,-80.127,"Stunning oasis with 4 bedrooms,  heated pool & spa"
10928,38.88485,-77.00646,Sojourn Penthouse with Private Patio
118003,35.59751,-82.55339,Industrial Chic Meets the Old World in Downtown Asheville
152037,39.69971,-105.00378,Private Parking! Central Denver. Monthly Rates!
137612,32.71736,-117.12146,Gorgeous Modern Studio Close to ALL Metro Areas
143487,36.14927,-86.79327,Walkable Apt in Landmark Neighborhood Music Row 24
79687,40.75547,-73.93557,Bright cozy home close to Penn Station NYC
3658,37.76476,-122.46291,Inner Sunset Studio
208852,26.19473,-80.13979,Fully-equipped Charming 4BR/2BA King Bed House
109472,40.7544,-73.98186,"Close to Chrysler Building! Pets Allowed, Parking!"
143211,36.16372,-86.78087,Walkable Stylish Getaway Famous Ave of the Arts 33
212733,36.03015,-115.14421,Beauitful 1 Story home minutes from the Strip
133302,32.75378458835745,-117.24688307695833,"Renovated+Stylish+Cozy+Beach=
OBungalow2"
32375,34.0455,-118.25002,Spacious Loft in the Historic Core
53194,34.00663,-118.29961,Large 4 bedroom with rooftop
19154,29.97695,-90.08244,Lovely Bayou St. John apt close to City Park
3821,37.80453,-122.42133,Airbnb fees paid by host! Fisherman's wharf area
54181,34.10861587524414,-118.33301544189452,Incredible Sun-Drenched Hollywood Hills Home VIEWS
124100,41.79601,-71.42251,Shagalishish Retro 1st Floor Unit
50665,34.02267,-118.45743,Adorable 1-bdrm guesthouse w/ private entry & yard
67540,40.66044,-73.99279,Classy Brooklyn Studio
194896,25.98665,-80.11927,Hyde Resort 1bedroom  Amazing Ocean views!
225658,42.34096,-71.09928,Cozy studio in Fenway
113078,37.11132,-121.89656,Treehouse in Vineyard Overlooking Monterey Bay
112695,37.32467,-121.96873,"Great 2BR in Santa Clara, Parking + Pet-Friendly"
49201,34.17213,-118.32828,Cozy Burbank Cottage
54363,33.79933,-118.40454,Magnificent Oceanfront French Chateau in la
122325,39.9628,-82.97125,Beautifully Renovated 1500 sf 1st Flr apartment
114250,37.31988,-121.94767,"Santana Row 1BR w/ Gym & Pool, 10 mins to Google"
219723,36.19087,-115.23339,Beautifully Updated West Las Vegas Home
60842,34.12434,-118.25799,Downtown Los Angeles Luxury Condo Free Wi-fi+Pool
47009,34.12992,-118.37461,5 Bedroom House with Pool in Studio City Hills
119176,35.62794,-82.5921,Plum Perfect Hideaway
208721,26.01421,-80.11642,Art Deco Style Studio Steps to the Broadwalk
2515,37.77782,-122.4046,"Modern,  designer condo in the heart of SOMA"
100480,40.76245,-73.9996,Luxury Penthouse Walking Distance To Time Square
6682,37.74489228109915,-122.41067783543298,San Francisco home with panoramic city view
190441,44.87087,-93.33738,Super Bowl - Beautiful Home in Perfect Location!
219165,36.10845,-115.11324,Grand Desert 1 Bedroom
30,37.76241,-122.43026,Castro Cottage w/ Secret Garden
42328,34.09674,-118.3344,Enchanting 2BED Craftsman Home Tucked in Hollywood
132281,32.7866,-117.25291,Steps to Bay + Peek Water View + Dog OK
105448,40.83282,-73.85237,Lovely  Big Studio for Rental Bronx City
52076,34.02462,-118.41301,Modern One Bedroom Condo with Private Balcony
139781,32.70767,-117.14543,A Spacious Sunny Remodeled Craftsman 4 Br 2 Bath
147767,36.07629,-86.93974,Renovated Red Door Ranch
166155,30.41624,-97.78908,NW Austin Guest House
195884,26.1594328,-80.1436652,Will's off Wilton Dr - 2BR/1BA + Den + Heated Pool
181316,45.5691,-122.68503,Modern Studio Well Equipped for Long Term Stays
224190,36.09729,-115.16795,CW Desert Rose Resort | 2BR/2BA Balcony King Suite
88671,40.71788,-73.95758,Lovely 4BR/4BA + Private Garden Williamsburg
22646,29.97031,-90.07882,Your festing headquarters!
42057,34.14827,-118.38509,Private Guest House in Studio City with Courtyard
145243,36.1883,-86.74561,*SLEEPS 24* Keep the Secret *2 Units * 8BR* 8BA*4
159588,41.95694,-87.73084,Convenient & Spacious Beauty w/FREE PRIV. PARKING!
133838,32.91715,-117.13184,Fun Times in Sun Times - Villa Close to La Jolla
202816,26.122,-80.10466,Tortuga 10 Minute Walk - Marriott BeachPlace 1BR
36976,33.969780806680134,-118.45511691639403,Beachy 2+2 Condo - Hear the Waves!
66469,34.12918,-118.06884,Cultural Retreat with Koi Pond
130781,32.72168,-117.16634,Luxurious fully furnished 1bd/1bth high rise condo
127164,41.7791,-71.47418,Cozy Cranston Cottage 3 Bdrm. Whole Private House.
42685,34.10404,-118.34117,Lovely 2 bedroom 2 bath apartment in Hollywood
47084,34.0931,-118.21886,Hillside peaceful studio
17470,29.93131,-90.11237,central locale-uptown universities
225025,36.06275,-115.12972,#60Vegas Haven with Above Ground Pool/BBQ Bistro
112008,37.40389,-122.09553,"Mountain View 1BR w/ Pool & Gym, nr Target & TJ"
141212,36.22977,-86.70034,The Flying Ham Camper Rentals- 16ft red ham
143762,36.13335,-86.801529,Classy & Vibey Guest Suite ‚Ä¢ Hip Hillsboro Village
110728,37.41427,-122.13306,Modern Designer Home/ Palo Alto Weekly Promotion
163772,41.73492469999999,-87.64010194051795,Spacious Home for Rent: Your Perfect Retreat
54805,33.98534,-118.4726,Private Residence Six Houses From The Beach!
11586,38.92963,-77.03029,"Modern, remodeled 2BR Apt w Easy Access Downtown"
134783,32.77911,-117.25198,The Best Value in Mission Beach
46198,33.98405838012695,-118.47040557861328,1877' 2bd/2ba 50yds to beach-2 car private garage!
58199,34.12972,-118.37259,5 Bedroom Dona villa - pool-location !
140297,32.853249486270734,-117.25619933002376,Beach Hideaway at La Jolla Shores
24456,33.81613,-118.29586,Beautiful 2 Bedroom 2 Showers Week Month Discounts
191407,44.75077,-93.50358,Maple trails farm house
40124,33.98941,-118.47355,#LAGETAWAYS Lovely studio with a beach view!
178695,45.55301,-122.58236,Private 2 bedroom near Airport
140958,36.12549,-86.79183,The Stewart House in 12th South - Entire House
20090,29.97905,-90.08263,Bayou St. John escape
132062,32.81564,-117.09071,yellow door
172993,30.25832,-97.69728,"Live like a local‚Äîmodern, fully-equipped 2BR home"
35546,34.5218544,-118.2673487,Spacious cozy ranch home
127140,41.5032642,-71.2791948,Luxury New Construction Home Close to Beaches
211751,36.05725,-115.13499,Amazing Stay close to the Strip and Airport!!
153219,39.72657,-104.99816,Cozy Duplex - Perfect Baker Neighborhood Getaway
195709,26.01574,-80.11644,Rooftop Pool & Hot Tub|Hollywood Beach+ Gym
76748,40.73498,-74.00124,Big Bright Beautiful True1BD HEART of West Village
92087,40.77568,-73.90218,Cozy apartment in Ditmars
42659,34.03986,-118.36791,Lux Designer 3BR Modern Chic House + Private Yard
130982,32.7525,-117.14365,North Park Cottage
170798,30.29719,-97.70412,Landing | Modern Apartment with Amazing Amenities (ID5795)
133152,32.71647,-117.14223,"New Remodel  Steps to Broadway! Near Downtown, Zoo, Coronado, NEW Jacuzzi & BBQ! (C)"
162932,42.00082279999999,-87.6707466,Spacious 3 Bedroom Home in Chicago Rogers Park
40506,34.00317,-118.47928,Townhouse at the Beach
163519,41.99726,-87.671561,Edgewater 3br nr Loyola & Red Line
151524,39.74307,-104.9759,Stunning Downtown Denver Home - 30 day rental
31326,34.05845,-118.3844,Spacious Double Bed Suite
15961,40.72065,-74.04858,Legal historic home 7min train to NYC with yard
16981,40.73074,-74.07236,Comfortable 2 bdrm near PATH train to NYC.
210594,26.125532,-80.130211,Cozy 3BD Home in Victoria Park W/ Pool by Las Olas
151000,39.76399,-105.02294,Highlands Townhome Dog Friendly No Clean Fee
35708,34.03254,-118.38821,Modern 5 Bedroom Masterpiece With Rooftop Deck
2342,37.75257,-122.50561,Coastal Simplicity
20959,29.95367,-90.04841,River View Luxury & Ferry to FQ
132463,32.71284,-117.1572,Gaslamp Downtown Gorgeous large Apartment (3 Beds)
114006,37.39894770819637,-122.02863076804192,"2BR Suite w/ FREE Breakfast, Outdoor Pool!"
94264,40.86212,-73.90177,Large Japandi Styled Apt with private patio.
184704,47.61648,-122.34746,Quiet Relaxing Belltown Loft-Top Floor Unit - A/C
197970,26.22734,-80.09109,+Cozy 1 Bedroom APT+ 1 block off the beach W/ pool
150647,37.1210461,-121.9535102,"S Cruz Mtn Retreat in Redwoods, Hot tub, & EV char"
187735,47.69408,-122.39561,Near the beach 4- bedroom rambler
128807,32.74994,-117.23326,"1940's Beach Cottage with Big Yard, Parking, AC"
137245,32.85275,-117.25032,La Jolla Shores Walk To Beach
50000,33.99943,-118.47277,Artist's Retreat off Rose Ave! Kitchen + Smart TV
140554,32.74474,-117.13012,Early 1900's Carriage House w/Views
163214,41.8570307,-87.6561274,Modern 4BR Pilsen Apt near Restaurants
213352,36.10883,-115.25693,Beautiful Pool House
169968,30.22857,-97.78772,BERMUDA RESORT
59070,34.16135,-118.69529,"Malibu Canyon, Calabasas 1+1 Luxury Guest Suite"
100606,40.76546,-73.9835,High Floor 2 Bedroom Rental in Midtown West
140088,32.74325,-117.17636,Peaceful and Charming Studio in Mission Hills
87678,40.67859,-73.94757,Bright one Bedroom with European Flair
14494,37.7714,-122.16763,Airstream Oakland
131919,32.82752,-117.27611,Luxurious Villa  near beach
186615,47.62579,-122.32178,Primo Capitol Hill Studio - Amazing Rooftop Views
197573,26.020112991333008,-80.14148712158203,Coastal Cottage in the Heart of Hollywood!
148222,36.14626,-86.81777,Country Ensemble - Sleeps 24 - Elevator & Theater
225348,42.38231,-71.06871,Historic and Charming Brownstone
57123,34.05149,-118.30385,Spacious single unit next door to Paris Baguette.
8474,38.93899,-77.02758,Beautiful 1 Bedroom Newly Renovated  Space
68504,40.66264,-73.98996,Huge Duplex in South Slope
10780,38.90213,-77.05103,Foggy Bottom Sunny Studio
48459,33.95956,-118.44945,Garden Oasis by the Sea
40037,34.03331756591797,-118.49139404296876,The Garden Casita-Best Location/ Lowest Price
118923,35.60055,-82.54092,Historic DT pet-friendly suite w/hot tub & views!
60600,33.97771,-117.90435,Family getaway in East LA near DTLA & Disney
99444,40.70529,-74.01053,Studio apartment steps from the NY Stock Exchange
66376,34.15362,-118.45389,L.A.'s Hidden Gem
125257,41.47436,-71.31412,"Walk to it all! Dine, shop, beach. Newport Living!"
108479,40.732445047309085,-73.9874980143505,Gramercy/Union Sq. Cozy 1-bedr.
145397,36.19751,-86.7814,"Luxury 3 story, Rooftop close to Broadway 516AB"
61425,34.269612,-118.535681,Guest House 2 bed/ 1 Bath with Pool
61644,34.08743,-118.35791,Weho Suite
21894,29.95044,-90.07214,Carnival Condo
5333,37.73656,-122.43922,Glen Hideaway - Light-filled Garden 3BR w/Parking
206499,26.28798,-80.11594,"Renovated Luxury 1 Bdrm, Free Parking, Near Beach"
6028,37.78167,-122.41147,Naturally lit top floor oasis.
221887,36.1015,-115.23834,30 day stays 4BR w/ pool+king bed in Spring Valley
205353,26.15328,-80.15027,417 ARTE HEART OF FORT LAUDERDALE
81279,40.69028006259685,-73.97829598397286,When Modern Meets Renovations Prewar Fort Greene
99858,40.75844,-73.96283,"Romantic Getaway, 1 bedroom unit in New York City"
212200,35.13584,-114.62389,Laughlin Portofino 1 Month min rentals only
204400,26.00943,-80.18524,Gorgeous Oasis for Relaxation.
167357,30.27599,-97.71519,East Side Modern Studio w/ Private Deck
169744,30.28695,-97.72183,Little Pink House
134796,32.77922,-117.25312,180¬∞ OCEANFRONT VIEWS | A/C | Private Patio |Clean
222761,35.13235,-114.62049,NEW! Laughlin Mtn Getaway: 2 Mi to Colorado River
55950,33.96849,-118.3508,2 mi from SoFi Stadium! Private Oasis near LAX
44566,34.15992,-118.38857,Morrison Modern Estate
206415,26.13854,-80.14079,Mermaid Lounge w/pool close to Beach & Downtown
117717,35.57367,-82.61196,Hideaway Cabin in the City!
213714,36.05713,-115.23559,Entire luxurious home in perfect Vegas location!
111424,37.4434,-122.15336,1005 #7 Large Studio/hardwood/1bath
149417,36.96133,-121.98563,East Cliff Beach Oasis - Luxury Beach Rental
169687,30.2358,-97.92589,South Austin Tiny Cabin #1
81477,40.74908,-73.8938,Renovated Dining 5min to 74st Express subway + AC
169269,30.1994,-97.93658,Tiny Home Retreat‚Ä¢Pool/Shared HotTub/Goats/Alpaca
54236,34.04414,-118.44632,Stylish Two Bedroom with Parking by 1Furnished
81092,40.68644,-73.99917,2 Bedroom with backyard and best location
25731,34.08615,-118.38927,Awesome location
190323,45.13814,-93.34479,"Super, Super Bowl house!"
168131,30.31767,-97.71708,Charming Cottage in North Loop / Hyde Park
216866,36.10178,-114.92984,"Updated condo at Viera, Lake Las Vegas!"
46241,34.10226,-118.3354,Luxury Studio w/ Balcony in HLWD
229765,37.698631,-122.469025,3BD/2BA Daly City home Nr SF Subway Bus Shops
63282,34.086055755615234,-118.3536376953125,West Hollywood Modern Luxury 5 BR Villa w/Pool
46149,33.99442,-118.45179,Cozy 1 Bedroom Venice Blvd V4
126863,41.39371,-71.61032,Post Coastal Cottage Green Hill- 6 lovely beaches!
118102,35.61693,-82.54063,Cottage Overlooks Waterfall - Near Grove Park Inn
48843,34.21402,-118.38865,Modern & spacious two-story home in NoHo
224244,36.06407,-115.08484,LV 4 Bedroom home 16 min 2 Strip
189945,44.94447,-93.30243,Beautiful family home in Uptown #1
122930,40.0098853,-83.013497,The Townhome at 2350 Neil Ave
112437,37.32594,-121.97206,"Santa Clara 3BR w/ Gym, Pool, 5 min to Santana Row"
109649,42.3691,-71.11237,Apartment in Harvard's Backyard
186983,47.63189,-122.32583,"E. Lake Studio w/ Pool & Gym, nr Space Needle"
161134,41.82063,-87.61904,Chateau Noir ~ Bronzeville condo 7 min to downtown
116106,37.2432301,-121.9516883,Los Gatos Cozy 2BD 2BA Private Guesthouse
187643,47.6168,-122.35122,Lovely 1-bedroom condo in the heart of Seattle!
188227,47.6082792,-122.330229,First Hill 1BR w/ Gym & Coworking
124764,41.495228,-71.282326,Ideal Family or Group Beach Home!
134399,32.71481,-117.15804,Trendy Loft in the Heart of Downtown San Diego!
167942,30.27144,-97.7563,Private Casita-Style Condo on West 6th Street
103359,40.71169,-73.96116,Stunning Williamsburg Apartment
45599,33.99706,-118.44991,Great Modern Venice Beach House
227444,42.34753,-71.08911,(C1) Crisp Clean Cool Back Bay Studio!
203360,26.08676,-80.30143,Estate 7 BR w/ POOL & Fun-spaces
21554,29.95547,-90.06994,One Bedroom Suite i
102402,40.73569,-73.95918,Condo Greenpoint WaterFront Property W. NYC views
93347,40.75259,-73.97227,"Large QUIET 2 Bedroom~Doorman, Elevator~Work~Share"
180259,45.56881,-122.66174,Casa Maggie Mae 5-Star Spot NE Alberta/Mississippi
154884,39.7319254,-104.989424,"Golden Triangle 2BR w/ pool, gym & w/d, nr Park"
104302,40.6912,-73.94721,Superhost Abode w/ Private Terrace & Views
95510,40.7432,-73.97946,New Townhouse Apt In The Heart Of Manhattan
211577,36.0999,-115.21345,"Las Vegas, NV, Tropicana, 2 Bedroom Dlx Queen #1"
45903,34.05893,-118.43659,Penthouse With 5 Stars Amenities
30715,34.04153,-118.25696,"Boho Style Condo Pool, Free Parking, Jacuzzi"
62130,33.79083,-118.30355,"Cheerful 3-bedroom, 2 bathroom house w/ back yard"
4570,37.79373,-122.42655,"Modern, New Studio with Private Patio"
180785,45.53248,-122.64796,"Spacious, Centrally-Located Suite"
27774,33.97245,-117.90477,Work & Travel |Free Wi-fi
206940,26.30274,-80.11184,Home For Family Near Deerfield Beach & Pier
114436,37.1452,-121.98026,Santa Cruz Mountains Loft near Summit
181829,45.50539,-122.65397,"Modern, central 2-bed loft with ensuites"
19853,29.98016,-90.07003,Perfect 3br/2ba double < 2 miles from the Quarter
205360,26.02853,-80.13517,NO Cleaning Fee - 5BR House W/ Heated Pool!
206349,26.16438,-80.10062,"Spacious, 3rooms, beach: 0.2mile, F.Lauderdale"
207809,26.22574,-80.11865,Sunny Canal
120445,44.86845,-123.04216,Willamette Valley Hideaway!
154180,39.72002,-104.98689,Broadway Central X! King bed! Dedicated desk!
38658,34.02028,-118.42118,Cozy Guesthouse In West Los Angeles
95749,40.71521,-73.95021,Lovely 1 Bedroom Apartment with Outstanding View
98012,40.76016,-73.92952,Cozy Studio in the heart of Astoria
24859,34.079601418733574,-118.5990430649641,Topanga Creekside Yurt
43628,34.6031,-118.13636,New trailer with washer/dryer/cable TV
16606,40.70306,-74.08729,Oasis on the Hill #2 Free Parking & Laundry
227682,42.28852,-71.04049,Renovated 3 bedroom minutes to Downtown Boston!
31423,34.07005,-118.38758,ULTRA LUX PAD WALK 2 RODEO DR.ASK ABOUT OUR PROMOS
228053,42.34639,-71.1005,Corner 2BR 2BA unit High end building Fenway Heart
172812,30.2878,-97.7077,Charming 3 bed 2 bath home mins to UT and DT
191550,44.96743,-93.17132,The Artsy Craftsman-Speakeasy Suite (Private Bath)
129712,32.74652,-117.1619,"Two Bedroom Penthouse, With Views"
73723,40.65928,-73.99277,"Cheerful, large 3BR w/ yard! Perfect for families!"
168493,30.37017,-97.73589,Welcome to Casa Craig!
35643,34.16677,-118.36395,Cozy Guest House
124190,41.48928,-71.28237,Brand NEW! 2 Bed/2 Bath Condo Steps to 1st Beach
144999,36.16147,-86.59697,Modern Apartment in Prime Location (ID6096X94)
124595,41.33554,-71.75521,Weekapaug Beach Home
80078,40.61595,-73.96623,Private Modern Studio in heart of Flatbush
27452,34.06038,-118.38288,Steps from Beverly Hills Queen Studio
140487,32.74226,-117.17433,Mission Hills - Cozy Canyon Condo
143488,36.11516,-86.7683,TWO NEW LUXURY HOMES! HOT TUB + GAME ROOM!
203898,26.095766297371053,-80.11426733862307,Charming beach house.
139312,32.77998,-117.20348,Bay Park Backyard Oasis
133202,32.72595,-117.16048,Downtown View 4 Sleepers Studio- Great for Getaway
55748,34.13666,-118.37962,Hilltop Boho Bungalow w/ Views!
78849,40.76771,-73.98588,Mid-town West 5-min walk to Central Park
123446,41.82033,-71.42742,Elegant Lovely Oasis  Location+++
123541,41.49542,-71.28139,"Escape to Seascape 4.5 BDRM, 7 beds. Walk to beach"
86238,40.65774,-73.96127,Quiet and Spacious spot on Prospect Park
206399,26.10643,-80.14158,Boutique 1BR Apt. Under 1 Mile to Las Olas w/POOL!
205613,26.1426,-80.14985,Private House Center of Ft Lauderdale Pool HOT Tub
138335,32.70395,-117.13508,üåµKing Bed|Queen bed|Full Kitchen|W&D|1.5Bath| üåµ
64894,34.06081,-118.3848,An Oasis of Comfort Suite
211747,36.10506,-115.16626,NO RESORT FEE‚òÖ Balcony StripView Suite ‚òÖFREE VALET
5594,37.7443,-122.47144,SF Cozy&Quiet 2Br home WIFi&Laundry in building
73624,40.72538,-73.95166,Gorgeous Greenpoint:  Sublet April 10th - 27th
158516,41.93387,-87.7191,2BR workfriendly guest suite+parking btwn ORD&Loop
193668,44.95435,-93.16615,The Jewel Studio of St. Paul
126793,41.83316,-71.4117,Riverfront Loft Living -Historic Downtown Building
63347,34.0854,-118.36547,SuperHost- 5 Star Luxury Villa with Pool & Views
87540,40.75834,-73.99581,Spacious New Studio!
66944,40.80687,-73.95333,LUXURY OF THE HORIZON
156517,41.89585,-87.6258,Luxury Condo with Incredible Views of Chicago
125575,41.3099,-71.85865,Waterfront in the Heart of Watch Hill
170398,30.27835,-97.75229,Private Pool and Minutes to Downtown ATX
169274,30.35981,-97.64935,Pretty HOUSE Near Downtown Austin
137664,32.74695,-117.13293,‚≠êNEW‚≠ê Modrn Apt w/ Prvt ‚≠êDeck‚≠ê in the ‚ô•Ô∏èNorth Park
161311,41.78202,-87.60322,2 bed 2 bath condo with private parking near UofC
123014,41.48494,-71.43379,"Summer Rental in Bonnet Shores,RI"
1441,37.73711,-122.42345,Bernal Heights Garden Studio
86185,40.66759,-73.8888,5-Star Lovely 2BR 2BTH Duplex Max 5 ppl
110907,37.37215,-121.826,"Adorable guest house, private and quiet"
98492,40.75177,-73.92489,"Entire Studio, 15 min to Manhattan"
51009,34.02494921723184,-118.39024664835304,"Blue Bungalow in Culver City, CA"
200679,26.12937,-80.12987,Close to Las Olas-Groceries-Stores-Beach home
149872,37.12632,-122.12899,Redwood Getaway #2
98646,40.70798,-74.00543,ASTONISHING & RARE in the heart of Manhattan!!!
18423,29.98729,-90.06047,Big Easy Charmer License #22-OSTR-14331
94774,40.86654,-73.92607,The best location to stay in New York City.
179771,45.51154,-122.64476,The Butterfly Cottage
186743,47.615172265375264,-122.35076224844696,Apt In The Heart of Downtown Seattle
59802,33.98631,-117.93757,Modern Home /Near Disney/Pool Table/More in LA
56659,34.0927,-118.36314,Truly Amazing Charming Townhome
181600,45.597397,-122.754715,"St Johns garden studio - bright, quiet, big yard"
100399,40.81376,-73.89935,Lovely 1 bedroom in Landmark Townhouse
158226,41.90231,-87.67174,"Wonderful Wicker Park 1 Bedroom, Walk To The Train"
34012,34.05368,-118.46359,Cozy Studio in Brentwood by 1Furnished!
215182,36.82374,-114.06114,FUN IN THE SUN
140546,32.75874,-117.1322,Characterful North Park Entire House in the Heart of Town
4757,37.80022,-122.43409,Perfect location SF Marina 1Bed apartment!
72391,40.72491,-73.9897,East Village
70852,40.68617,-73.96257,"2 Bedroom fully furnished apt,Clinton Hill BK"
51632,33.98655,-118.46053,Venice Beach Bungalow
157177,41.92165,-87.69959,Modern Graystone Apartment in Popular Foodie Neighborhood
169822,30.25826,-97.71923,Cozy Carriage House One Block Away From Sixth St!!
5470,37.77787,-122.42314,Inn @ the Opera~
176136,30.37254,-97.70976,Your extended stay home in North Austin!
196503,25.9870383,-80.1206413,Stylish Penthouse High Ceilings Luxury Building
1931,37.79029,-122.42946,Cozy apartment in a nice neighborhood
33089,34.03709,-118.26681,#6 Lovely Studio in Downtown LA For Lease
207203,26.15243,-80.13276,Wilton Manors Studio
152166,39.74404,-104.99672,32nd Floor Corner Unit With Stunning Mtn Views
144706,36.19307,-86.73609,Cozy East Nashville Home with Fenced in Backyard
127040,41.36446,-71.48782,Cozy Cottage- ocean views with private beach
196572,26.00477,-80.27526,Paradise in Pembroke Pines with free parking WiFi
101165,40.78328578338203,-73.94778914312606,Lovely 1 bd apt. 5 blocks away from Central Park
68079,40.67163,-73.98278,Vacation sublet in Brooklyn NY
190548,44.98633,-93.03323,"SUPERBOWL WEEKEND, COZY ST PAUL HOME"
201496,25.98623,-80.12348,5 STAR view Studio+no resort fee
133804,32.7089314,-117.1548758,East Village Penthouse
173214,30.27745,-97.71299,East Austin 1 Bedroom Guesthouse on a Quiet Street
136410,32.72632,-117.16505,"Cute & Cozy place , Centrally Located !!"
33960,34.08207,-118.37139,Lovely West Hollywood Apartment free gated parking
19425,29.93492,-90.08025,Wyndham Avenue Plaza * 1BR
179217,45.53537,-122.70468,"Stylish, Bright Townhouse - Nob Hill 2B/1B"
193433,44.95721,-93.2594,Walk to Hospitals | Near DT | EZ Commute
186423,47.6273,-122.34409,Queen Anne Luxury Condo-with Office!
105336,40.7199,-73.98692,2BR Manhattan loft near subway
46087,34.13316,-118.19488,1940s Traditional Home with Large Tree-Shaded Backyard
133779,32.87523,-117.24704,La Jolla Lookout your zen home for when you need peace and quiet!
159330,41.89506,-87.67748,Vintage Elegance Meets Modern Sophistication
176112,30.25661173,-97.7388431,Take My Breath Away | Sky Pool | Huge Private Deck
142783,36.17225,-86.78219,Beautiful Downtown Townhome with Rooftop Patio
143675,36.15538024902344,-86.77073669433594,City Loft w/ View! Walk to Broadway! Park Free
224405,36.11116,-115.22343,The Bohemian Quarters near Raiders Stadium
44285,33.98734,-118.47266,A living Art Gallery at the beach!
187137,47.66646,-122.3765,Beautiful Studio Apartment in Seattle
141055,36.15118,-86.80257,‚≠êÔ∏èThe Southern House - NEW! 1mi to DT
59214,34.05711,-118.38686,5 minutes to Rodeo Drive! 3 bedroom + 3 bath home
181733,45.55987,-122.6488,Contemporary Apartment in Alberta Arts District
168585,30.26059,-97.73157,"East Austin Music 
Best Location"
70037,40.70829,-73.94852,Fall Oasis in Williamsburg
171721,30.32832,-97.70321,"B17 POOLSIDE 1st Floor-Double Twin, Pet Friendly"
134373,32.77377,-117.25184,"Ocean Mist III-6 bd, 6 ba, sleep 12 adults 2 juniors"
17155,40.7508573,-74.040145,Big Nice House - 25 Minutes from Manhattan!
196991,26.2358,-80.10071,Bimini Breeze Apt.3 - pool- beach
24150,29.93303236369801,-90.0747145970227,Lower Garden 1BD 1.5BR
29161,34.09482,-118.40253,Beautiful Private Guesthouse in Beverly Hills
98471,40.72841,-73.983,Large 3 Bedroom Apartment in Heart of East Village
188978,47.66209,-122.35505,Private terrace & mountain views @ Fremont Peak
154468,39.79167,-105.03103,"Charming Getaway Perfect for Groups, Casa Mariposa"
20995,29.95076,-90.06735,Historic Downtown New Orleans Loft - 2 min to FQ
12241,38.95350509639576,-77.0157566578519,Newly renovated 1-BR bungalow in Brightwood Park
227310,42.31966,-71.10592,Urban Guest Suite
133612,32.74071,-117.25427,Remodeled & Spacious Apt Ocean Beach Sunset Cliffs
17048,40.72116,-74.07115,Modern Luxury Apartment near NYC
213801,36.11676,-115.16334,Great Resort | Kitchen | Pool | Wifi
159777,41.93825,-87.64123,Inspiring Stone Grotto Sleeps 10-20 & Free Parking
76606,40.76209,-73.99612,Broadway - Times Square - High Line - Hudson Yards
23374,29.95174,-90.06839,CW La Belle Maison | Studio Resort Suite
125721,41.58452,-71.27551,"Glamp Newport ""Zeppelin"" - 1966 Airstream #1"
21255,29.93808,-90.13045,Beautiful Uptown Family Home with Pool!
54133,34.08511,-118.3131,Cozy & Charming Home in Hollywood Studio District
197385,25.98594,-80.11944,"1550 square feet 
2bedrooms 2full bathrooms 
Miami"
158649,41.91208,-87.63838,"Old Town Cosmopolitan Four Bedroom, Four Bath"
191856,45.0858,-92.84512,Relaxing Lake Retreat
199273,26.18561,-80.09763,1B/1B Apt. #1-Short Walk To The Beach
92677,40.7413,-74.00054,Charming One-Bedroom Apartment in South Chelsea
101714,40.67981015441173,-73.91520794481039,"Estudio privado, entrada principal compartida."
134749,32.79326,-117.23928,Walk to the Beach Crown Point area
113695,37.39756,-121.96646,Executive Studio in the Heart of Silicon Valley
145253,36.15404,-86.82463,House w/ rooftop patio & Gorgeous Nashville views!
15513,37.80259540826751,-122.23560533168082,Commuter Friendly Flat
170437,30.20143,-97.80751,So Austin Gem w/Pool & Guesthouse (rents together)
11098,38.915313720703125,-77.03614044189453,1 BDRM Apartment in Dupont Circle 1 Month Minimum
83272,40.76327,-73.92343,Cozy Clean Clutter-free 2 Bedroom Apartment
56327,33.91823,-118.17097,Cozy private studio in charming neighborhood
190524,44.95437,-93.27566,Eat St Town Home
48639,34.03723,-118.17887,Modern home in Arts District
48673,33.78905,-118.16646,Lovely 2-bedroom rental unit. 8 min from the beach
23118,29.95277,-90.0732,- Perfect Spot in Downtown New Orleans!
218956,36.09654,-115.20798,Desert Paradise Las Vegas 1bd villa- On the Strip
106704,40.59469085606677,-73.77884061907577,Cozy 2 Bedrooms by the Beach!
176580,30.2653,-97.7447,Downtown Suite with Walkability
134666,32.71996,-117.16707,"Amazing View, Excellent Location in Little Italy!"
169112,30.27206,-97.74465,Wyndham Austin- 2 bdrm
204440,26.0333,-80.20579,Secluded Charming Tenement
211681,36.14469,-115.27859,"PRIVACY 4 U..1BR, 1Bth, kitchenette, Pool, HT"
174391,30.27635,-97.7156,Chesnut House
138949,32.86008,-117.18824,Relax in University City
111515,37.29907,-121.99155,Guest Unit Cupertino | Private Entrance | Kitchen
55993,33.9593888,-118.4303219,"Playa Del Rey 2BR w/ Pool, Gym, nr beach & LAX"
183258,47.6076,-122.33938,Zen Escape - Pike Place Market
146191,36.16529,-86.83468,*Amazing Roof Deck!* | Only 10 Mins from Broadway
161602,42.008564,-87.670586,"Minutes to lakefront, beach, train, live theater"
132998,32.73957,-117.16039,San Diego Inn 1 br
200808,25.97533,-80.1278,OCEAN ACCESS W DOCK 5BR W/ POOL/GAMEROOM
94545,40.88316,-73.90883,Lovely studio in Riverdale
109595,40.77652771314672,-73.94619207166808,One Bedroom Apt in UES Manhattan
129988,32.80511729400593,-117.25686292744942,"North Pacific Beach, walk to Ocean/BeachBluff Yoga"
42559,34.1926,-118.63729,Woodland Hill/Warner Ctr Retreat II
53379,34.25409,-118.50589,Stunning Modern Home -KING Beds- Pool and Spa
43435,34.00756,-118.45447,Venice Oasis Pool & Music Studio
187978,47.61978,-122.28792,"Spacious Sun-Filled Home, Walk to Lake, Arboretum"
227149,42.3465132,-71.1032136,"Fenway 1BR w/ Gym, steps from Fenway Park"
155992,39.683720233501866,-104.9851931252052,Charming & Central Denver Home
25261,34.06938,-118.36371,Villa Bonaire | New Construction - 5 Bed & 5 Bath
135276,32.78168,-117.25132,Relaxing Bayview Sunrise B1
138761,32.74461,-117.17871,House Overlooking Harbor Near Downtown!
32665,34.16674,-118.12738,Luxury Studio in Charming Historic Pasadena
77705,40.8326,-73.94035,Ch√¢teau Sharif - Cozy Washington Heights Studio
22143,29.97022,-90.06398,"Blocks to Quarter, Courtyard 2 Bed 2 Bath"
175704,30.4033646,-97.7226447,Frontdesk | 2 BR Apt close to Wonderspaces Austin
97192,40.6839,-73.94585,lovely 3br ground floor apt with outdoor space .
139451,32.78829,-117.19942,2 BR/ 2 BA San Diego Getaway
171162,30.17945,-97.85903,Spacious 4 bedroom house with pool
144875,36.20288,-86.74094,Spunky Modern Home with Rooftop! Minutes to Broadway
221454,36.11535,-115.19834,Palms 19301 1BR Upper Floor - Casino Open!
143069,36.12504,-86.7969,Lovely space in the heart of Belmont/12 South
173002,30.23764,-97.74485,Delightful Travis Heights Guesthouse - near SoCo
174324,30.2427568,-97.7790893,Casa de la South Lamar
73830,40.68899,-73.97269,Fort Greene Brooklyn mint rowhouse
170041,30.12532,-97.68494,Starship Arrow Flite
206641,26.14006,-80.14329,MAR PROMO|Book 5 nights get 50% on the 5th Night |
49953,33.96697,-118.32493,Mediterranean House with Relaxing Yard (by Sofi)
120401,44.89836,-123.02931,Immaculate and Quiet Home Centrally Located
76579,40.74276,-73.99421,Gorgeous and Renovated Chelsea Apartment
24010,29.93418504340287,-90.1318192096592,Audubon House apt.2.  (2 bdrm)
96291,40.73301,-74.00131,Beautiful Modern 1 BR in the Heart of West Village
89925,40.76119,-73.96379,Cozy one-bedroom in a hidden gem neighborhood
68531,40.66562,-73.98385,Sunny 1 br apartment in Park Slope
206886,26.12183,-80.1342,Beverly Heights studio near Las Olas
7534,38.88759,-76.99931,Stunning new 1BR in Capitol Hill
202161,26.09263,-80.16487,New! Luxury Vacation Home  Fort Lauderdale
172723,30.28227,-97.76327,"Clarksville Modern with Hot Tub, Outdoor Kitchen, Bar"
161901,41.87859,-87.6999,JJB- Private Bsmt at Garfield Park- Up to 7 Guests
152363,39.76277,-105.00564,Sonder Osage | Studio Apartment
171692,30.3188533782959,-97.71048736572266,Central to Moody Center/Downtown/UT Campus/Domain
19242,29.94776,-90.11946,Tropical Garden Studio
103186,40.90008,-73.85697,Host your party or Event Space w/ full Kitchen
148231,36.1548886,-86.77541389999999,Luxury Apt Steps from Broadway
205470,26.02665,-80.12655,Great relaxation Place by the beach
103426,40.75095826371552,-73.97780079291135,Cozy Two Bedroom Apartment in the Heart of NYC
141815,36.17453,-86.79778,The Bea Arthur
9995,38.88127,-77.00112,Sojourn | Stylish 2 BR Hill Home | #407
198283,26.21606,-80.12842,POOL house - amazing area
114216,37.30793,-121.89601,Adorable 2 bed guesthouse walk to Willow Glen DWTN
180399,45.54347,-122.65728,"Spacious, High-end Remodeled Portland Craftsman"
96951,40.71141,-73.94893,Penthouse in Williamsburg with Private Roof
143179,36.15478,-86.70774,Music City Studio - 10 Minutes to East Nashville!
181545,45.54093,-122.53705,Huge Family House in NE Portland
117976,35.59032,-82.61733,Pet friendly W AVL Artist's City /Mountain Home
179641,45.533269,-122.695013,Spacious 3BR Q21 | Elevator | Washer/Dryer
12641,38.890697,-76.9491038,Brand New LUXE 4BR/2.5BTH Home
139338,32.79251,-117.15465,"Spacious, private, studio unit - 117"
176905,30.43271786309468,-97.69461400616012,Unique one bedroom rental.
196635,26.05951,-80.20385,Modern Lucky Lake House Hollywood Hard Rock Casino
183963,47.65761,-122.31607,"3-minutes WALK to UW, Clean Fast Internet (38)"
225203,42.3633,-71.05237,Boston- best price and location / free parking
33676,34.07381,-118.15904,Cozy Alhambra Guesthouse w/pool
73806,40.67013,-73.94789,Pleasant 3rd Floor Timeless Brooklyn Apt
132648,32.71865,-117.12213,‚úß Walkable & Pet/Child Friendly in heart of SD ‚úß
111623,37.3712896,-122.0573953,"Sunnyvale 1BR w/ Pool, Gym, & BBQ, nr shops"
162536,41.88527,-87.66305,Lovely 1 Bedroom Furnished Apartment on the Park
197975,26.24143,-80.08914,CW Sea Gardens Resort | 1BR/1BA King Bed Suite (2)
148047,35.9833,-86.66496,Luxury 1 Bedroom with Flex Living Room/2nd Bedroom
75270,40.62783,-73.96151,beautiful one bedroom apartment
49738,34.10564,-118.31311,Quaint & Cozy Hollywood Apartment
150156,36.96753,-121.90248,Seashell Beach Home 258
193928,45.16538,-93.20026,Perfect Family Friendly Home
126121,41.37038,-71.65862,"Beach or Pond, you can't go wrong"
225657,42.33016,-71.09527,*Modern City Triplex!! *Close to Center
100338,40.79572,-73.96186,Beautiful Cozy Private Studio Close to Columbia
1808,37.76454,-122.43476,Cozy Guest Suite in Great Location
147799,36.14999,-86.77743,New Luxury Apt 2 mins away from Downtown Nashville
50996,33.75747,-118.1309,Stroll to the Beach in Belmont Shore from a Bohemian Getaway
130725,32.75231,-117.24984,Nice Sandhouse on the Beach
173715,30.31955,-97.73288,Cute 1/1 + washer&dryer + easy parking & LOCATION
107329,40.77665833130233,-73.98969305814911,Live Luxuriously by the Water
60074,34.69219,-118.13844,Modern Studio Near the BLVD
167307,30.29134,-97.77263,"Tarrytown original, close to SXSW, ACL and more."
25753,34.0471,-118.25012,Sunny Downtown La Loft! Long term stays available.
57718,34.03973,-118.26752,Downtown LA Luxury Studio
9284,38.89791,-76.98726,"Discover Hip H Street from a Classy, Comfortable Townhouse"
149911,36.9634,-121.99251,Steps to Black's Beach
140308,32.75938,-117.17679,Charming & Modern Mission Valley One Bedroom‚ú®
118099,35.50194,-82.60538,Asheville - Mountain Bike & Hike in Bent Creek!
161285,41.89249,-87.64975,Upscale 4-Bedroom Townhouse w/Garage - LOCATION
109248,40.71461,-74.00807,Near Rockefeller Center! Luxury Stay in NYC!
61066,34.10568,-118.37528,The Laurel Canyon Hunting Shack - Hollywood Hills
188471,47.58181,-122.39153,One Bed condo in WSeattle by restaurants and Alki
211117,36.1087,-115.16571,MGM Signature 1BR/2BA Suite W/ View
71872,40.75296,-73.98451,Charming Studio by Bryant Park
158182,42.01957,-87.66426,Beach House Chicago With Terrace Backing on to Lake Michigan
195970,26.16248,-80.15182,Entire Cozy 2 room studio-private entrance
155398,39.7868,-104.73784,Comfortable family home near DIA
33770,34.04398,-118.25912,Luxury Condo - High Rise DTLA
191514,46.13665,-93.57585,4BR Izatys Lake Home Mille Lacs Fish-Golf-Swim
217133,36.10661,-115.16701,38-702 Upper Penthouse 1 bdrm MGM Balcony view
185807,47.66266,-122.34837,Suite II: Lower suite in a classic Fremont home
131524,32.71469,-117.15682,"($4,499 per Month) Gaslamp - 1 BDR/Free PKG"
72502,40.73876,-73.99531,Luxury Studio in Chelsea/Flat Iron
123097,41.81896,-71.42699,Charming tiny penthouse!
185255,47.56586,-122.37314,Beautiful 2 bedroom condo in the PERFECT LOCATION
39781,34.033324,-118.463803,Sun-filled Santa Monica Condo
81355,40.66588,-73.97945,Cozy 2 Bedroom by the Park !
216124,36.1125,-115.18755,Homey 1BR Condo by Strip w/ Parking/Hotub/Pool/Gym
38066,34.10697937011719,-118.34008026123048,Near attractions! Hollywood Hills House with Views
206711,25.98964,-80.14065,B3-Affordable studio close to  Beach free parking
87418,40.736,-73.99719,Gorgeous Gut Renovated Studio in the Village!
91362,40.68469,-73.98884,Family friendly in heart of Boerum/Cobble Hill
62281,34.09031,-118.34456,Modern House near K-Town LA
76652,40.74071,-74.00193,BEST One Bedroom in the Heart of Manhattan
199920,25.98703,-80.11793,Miami Hollywood Condo for 6 People
142780,36.17811,-86.78735,Chic Residential Home with Rooftop Deck
8934,38.9562,-77.01953,Cozy one bedroom basement suite in DC rowhouse
179636,45.53322,-122.69506,Nob Hill 2BR | Central Location | Washer/Dryer
179760,45.51804,-122.64561,Joshua Tree Vibes in SE PDX - Local Bars & Food
169764,30.27562,-97.71717,Naaman's Charming Abode
220243,36.09855,-115.24372,New Reno Townhouse w/backyard Pond & Fire Pit U015
204410,26.00939,-80.17195,Luxury large Pool House in Hollywood Beach
4696,37.74784,-122.42161,Luxurious and Modern Mission District Stunner!
214776,36.10357,-115.09899,Cozy and Spacious Home Minutes From Airport
72086,40.77988,-73.98103,Cozy One Bedroom -Beautiful Terrace
219401,36.0361296,-115.2543317,Entire Place | 3 bedroom | Sleep 8 | 10 min to LAS
11953,38.8778,-77.01518,Gorgeous Luxury Waterfront Views! w Home Office
6763,37.78707,-122.41121,CW The Donatello | King Bed Studio Suite
184923,47.66943,-122.38223,Cozy Condo in Ballard! Amazing Rooftop Deck!
153365,39.770199,-104.738625,Beautiful Single-Family Home near the Airport
3886,37.79109,-122.44214,SF-Pacific Heights-3-BR+2.5 BA Stunning Victorian
148489,36.154864,-86.775279,Downtown Luxury Studio | Walk to Broadway
144662,36.1324,-86.78161,Historic Bungalow in walkable 12 South
229003,37.5346,-122.25436,Fully equipped 3 bedroom home (Long term discount)
15104,37.80087,-122.2738,Lovely bedroom rental unit with patio
52543,34.03347,-118.46213,Franklin Amazing House
218389,36.01692,-115.16143,Modern Family Retreat
105232,40.71695637853431,-73.94082445430399,"Cozy, music filled one bedroom"
116341,37.37764,-122.03546,227 - Gorgeous 3B2B Close to Downtown Sunnyvale
150806,39.75731,-104.98313,Historic & Fresh Home in RiNo
204192,26.06129,-80.18094,"Gorgeous 4BR/3 Bedroom, Heated Pool, Amenities"
38783,33.77332,-118.18658,"""Coastal Luxury, Modern Amenities & Historic Charm"
112404,37.39987,-122.08877,Furnished 2/1 Apt #1 by downtown Mountain View
125690,41.50204,-71.5417,Lakefront home in Beach Town RI July available
160654,41.94635009765625,-87.65935516357422,Peculiar but posh ground floor flat
115039,37.34108,-121.8653,Cute cozy cottage near downtown S.J.
135890,32.90122,-117.1183,Creekside home 1bd 1bath condo
47567,33.98047,-118.46406,Private Venice Beach Loft - Blocks from the Beach
109976,42.38831,-71.12746,"Cambridge beautiful 2BR, near Porter/Harvard Sq."
48107,33.98339,-118.35935,2-BR Guesthouse
54693,34.1108,-118.0641,Seasons sunshine-A-ÂõõÂ≠£Èò≥ÂÖâ-Ê∞ëÂÆø-A
199262,26.23966,-80.0916,Pompano Beach Paradise
171716,30.25514,-97.73397,üöÄ Austin Clubhouse üïπ Rainey Street - 6 min walk üöÄ
133065,32.79305,-117.25172,Quiet coastal studio in heart of Pacific Beach
211135,36.10345,-115.28801,"Grand Villa - Ping Pong, BBQ Patio"
184932,47.62914,-122.36751,"Magical Victorian.  Views, King Bed, Private. Wow"
185251,47.61793,-122.31818,Spacious Capitol Hill Home Base
99182,40.68983,-73.80521,Newly Renovated 2 Bed Apartment With Outdoor patio
165481,30.2479,-97.7868,"Luxury Home -View, Pool & Spa"
104278,40.65714,-73.91033,The Good Life Art Studio
6808,37.7846897427046,-122.39287435492312,Live-Work Downtown San Francisco Loft
172769,30.198,-97.74192,Viva La Austin! Newly Renovated Austin Getaway!
61941,34.04525,-118.25117,Los Angeles Loft w/ Free Parking & Fiber Internet
102849,40.74245,-73.987,Exclusive Studio Manhattan
152325,39.71661,-104.97315,"Artful Wash Park Home, Steps from Cherry Creek"
81437,40.85587,-73.83041,Charming redbrick Bronx Villa
103886,40.72407,-73.98779,Lovely 1 Bedroom In Manhattan
212998,35.96817,-114.84013,Best in Boulder City!  25 min to Vegas Strip
133604,32.79012,-117.23928,Affordable Studio for long term professionals
18407,29.92028,-90.11151,Fabulous Location Historic Home on Magazine St.
220535,36.22531,-115.14733,Classy 3BR Vegas Pool Retreat w/ Pool Table
146881,36.15427,-86.77472,The Urban Oasis| 5 min Walk to Broadway
138700,32.792524246110304,-117.1560827642106,Barebones Studio 208
92634,40.67609,-73.95478,"Brownstone Garden in Crown Heights, 1/1 w/alcove"
22741,29.96687,-90.03666,Charming 2 bedroom in the heart of Bywater
9366,38.94472,-77.00642,Summer Rent Special! Beautiful 1 bedroom apartment
167529,30.28144,-97.69718,Artist cottage oasis
36508,34.24398,-118.56872,Cozy & Private Retreat w/ Pool (Heat optional)
48108,33.98522,-118.3616,420 Friendly Stay! Park View & Patio by Sofi & Lax
215482,36.15408,-115.21291,Beautiful Private studio#5
164650,30.30479,-97.72234,Stroll to Local Restaurants from a Unique Modern Home
2626,37.78724,-122.46002,Spacious 3BD1.5BTH+GARAGE Prestigious neighborhood
8050,38.88631,-76.98766,Wonderful 2Bedroom Rowhouse close to Inauguration
217659,36.11732,-115.20544,"$8 Uber 2 miles to Strip, next to Rio 3bed/2bath!!"
207861,26.2292,-80.1104,Mango House
108318,40.7604361,-73.96852299999999,"Midtown East 5br w/ balconies, nr Central Park"
122587,39.902720050394976,-83.10342112703609,Beautiful family home in Grove City
180977,45.46206,-122.64322,Long term stay in Sellwood-Moreland area
169860,30.2726,-97.75537,Perfect SXSW Place to Stay - Authentic Austin Home
128249,32.81638,-117.21686,LUXURY SD home near beaches/bay EPIC bay views!!
218174,36.11477,-115.19917,WM26* Studio Suite/No Resorts Fee/Lobby Bar
159493,41.9295,-87.71515,Welcome to the Wrightwood - Chic & Newly Renovated
28727,34.07362,-118.39298,Best Location üå¥ Luxury 2B/2BA Condo üå¥ EV Parking
190163,44.95043,-93.38743,Super Bowl 15 min to downtown
107589,40.80619133162162,-73.9410524361455,Warm & Cozy Harlem Diamond
193165,44.96639,-93.01122,Level Up Suite
96937,40.59434,-73.79359,Sunny Apartment in Far Rockaway Arverne ~ NYC JFK
41826,34.09216,-118.33538,Right on Santa Monica Blvd. A Hollywood Dream!
137993,32.70945,-117.14713,*NEW* Modern Apartment Getaway by Downtown
69226,40.68493,-73.94652,large sunny pre war studio
164316,30.24413,-97.77768,sweet light & art-filled bungalow!
153001,39.75708,-105.02367,"Sunny, Stylish North Denver Home Next to Downtown"
191045,44.94018,-93.28613,‚û° Gorgeous Uptown Home ‚¨Ö
163352,41.9993,-87.66586,2BR Charming Home in Rogers Park
120906,39.90372,-83.06041,"Quiet Remodel Home, Grove City, Close to Columbus"
147782,36.14551,-86.81487,Lofts at 30th - Urban Muse - 6 mins to Broadway
165348,30.29824,-97.75659,"Spacious, Central 3BR/2.5B  SXSW"
44437,34.16405,-118.39802,"Cozy & Clean Garden Apartment, Amazing LA Location"
117516,35.50579,-82.60872,"Adventure Lover's Studio, Bent Creek Asheville NC"
126568,41.48063,-71.31496,Best Location with parking & walkability!
191196,45.26869,-93.58838,Guesthouse on 20 acre Hobby Farm
171433,30.26699,-97.70919,Formula 1 | East ATX Casa | Walk to E. 6th Street
69398,40.72586,-73.99515,Cute and Quiet in the Heart of Soho/Nolita
192255,44.95682,-93.22955,Cheerful 2-bedroom home with free garage and fence
208695,25.99281,-80.11837,COZY PET FRIENDLY OCEANFRONT 2BDR/2BATH CONDO
141046,36.15597,-86.66196,Cozy Cottage with Vintage Decor Near the Airport
119340,35.46958,-82.50662,Bring the Family to our South Asheville Townhome W/ Hot Tub
90586,40.6734,-73.94623,Entire 2 bedroom Apt in the heart of crown Heights
216676,36.12255,-115.20469,Spacious master 2bed2bath w/ full kitchen.
170520,30.26635,-97.71802,East Side Gem! Walk to best Coffee in Austin (S)
179699,45.515,-122.6402,Comfy SE Portland Apartment - Great Eats/Bars
73630,40.73323,-73.9828,338-3B union square Newly Reno Sleeps 3
16773,40.73669,-74.05145,JC Heights Gem üíé 1st Floor. Prime Location !
24989,34.07988,-118.36283,The Beverly Grove Villa
126829,41.47917,-71.31398,CHIC on Thames St Deck & free parking
62467,34.03856,-118.65106,Carbon Beach
124469,41.68271,-71.24369,"Hopeworth Homestead: POOL, BEACH, AC, SLEEPS 10+"
87736,40.6721,-73.93042,"The Brooklyn Loft, 30 minutes from Manhattan"
126862,41.15341,-71.58448,Ocean-View Cottage at Spar Point Farm Block Island
109199,40.71510550890027,-74.00787705392786,Free Grab & Go Breakfast! 2 Units! Pets Allowed
140642,36.1221,-86.8422,"Luxury ""Shabby Chic Dollhouse"" Home~BEST LOCATION!"
127152,41.49814,-71.31141,2 BR furnished house in prime Newport location
142808,36.16304,-86.77643,STEPS FROM BROADWAY ‚òÜ The Lofts @ 107 - Unit 4
71979,40.76218,-73.99278,Petite Retreat in Hell's Kitchen
3905,37.72836,-122.39365,Private Team Commuter Suit
52950,34.0047,-118.47662,Santa Monica's Best Guesthome/15 Min Walk To Ocean
101466,40.67055,-73.8591,Stylish NYC Apartment
146383,36.0511,-86.73581,Airy Guest Suite
70339,40.71915,-73.99869,Entire Apartment- Cozy Bohemian in New York City
226261,42.26619,-71.16496,Quiet getaway in a Boston home
222296,36.11474,-115.25881,Home away from home.
32504,34.06215549169581,-118.08350501514552,Boho LA Retreat Pet OK Sleeps 8
132900,32.78522,-117.23645,üåü Comfy Clean Jewell Beach-Guest House+2bikes üåü
139326,32.76121,-117.11123,Private Entrance Studio with Pool & Hottub
164644,30.2561,-97.73468,Be Inspired by This Artistic Home near Rainey Street
221378,36.21123,-115.02676,Private & Cozy Studio!
185398,47.61112,-122.32925,Bright & Minimal Downtown Studio
137226,32.74187162984089,-117.23254848233968,Amazing 2bd/2bath in Ocean Beach
140098,32.74023,-117.25197,Seaside Hideaway Suite a block from the ocean!
98269,40.78065,-73.91515,Cozy Basement/ Apartment in the heart of Astoria
13479,37.81292,-122.23473,1 Bedroom Apartment near Lake Merritt
229574,37.63603,-122.49394,Beach  Front   Luxury property only 7 miles to SF
193091,44.9491007,-93.30450100000002,NEW Chic + Clean Uptown Home steps from the Lakes
156016,39.7126048,-104.950704,"View Condo in Cherry Creek North, Denver."
122001,39.98836,-83.03456,Luxury 2 Bed with a Loft
182120,45.47786,-122.49605,Lakeside Gardens Cottage
54123,33.7721397,-118.1956377,"Long Beach studio, walk 2 food, beach & shopping"
43840,33.79594,-118.14701,MID-CENTURY MODERN beauty near the beach
207339,26.12418,-80.12139,Capri - 1 Bedroom 1 King Bed Luxury Waterfront Apartment off Las Olas Boulevard
155414,39.78216,-104.74951,Home 2
90353,40.74917,-73.91058,Apartment close to Manhattan
79598,40.7021,-73.98202,"Modern, hip, light drenched apartment."
202544,26.18923,-80.09647,#3 -Seaside Villa 2 bedrm - Lauderdale By The Sea
171086,30.23914,-97.78669,Landing | Modern Apartment with Amazing Amenities (ID151407)
42489,34.03809,-118.50901,Private Santa Monica Canyon Retreat on Double Lot
135976,32.78763831472465,-117.2548021970087,One minute walk to the beach - Shell Yeah - New Listing
221811,36.10719,-115.11307,Wyndham Grand Desert | 1BR/1BA Resort Suite
222431,36.10508,-115.16572,E2I1 1BD/2BA w/Balcony/Full Kitchen/Pool/Gym
40869,33.91423,-117.98598,Peaceful Guest Suite in La Mirada
101133,40.79576,-73.93313,Lovely 1-bedroom/studio apartment in East Harlem
130579,32.73902893066406,-117.16246032714844,"""The Carriage House"" Upper Unit"
159342,41.9089458,-87.6504842,"Lincoln Park Studio w/ W/D, nr L & New City"
154568,39.69171,-105.03442,Marvelous Spacious Home Right Next to Lake & Park!
146558,36.14834,-86.76652,DOWNTOWN NASHVILLE-1.2 MILES TO HEART OF NVILLE
47310,34.04383,-118.44661,Stylish One Bedroom by 1Furnished. Beloit Ave
57316,34.04882,-118.46851,"The Glass House /
San Vicente Village"
118340,35.59628,-82.55179,Central Downtown Asheville 203
64573,34.11471,-118.58126,Topanga Cabin Reverie - Amazing Views
169548,30.2168083190918,-97.96795654296876,Shady Utopia | Heated Pool | 5 mins to breweries
149192,36.9659,-122.00963,The Seabright Beach Bungalow
169060,30.25545,-97.75741,Urban Treehouse Retreat minutes from Downtown/SoCo
108016,40.75309908332046,-73.97139704859629,CW Midtown 45 | 2BR/2BA King Bed Suite
138670,32.76891,-117.11685,Chic 2Bed & Large Serene Backyard in Heart of SD
203496,25.98145,-80.22188,NEW! Miramar Apartment Near Fort Lauderdale!
24208,29.90161991282545,-89.99982092168615,Swanky New Orleans Townhouse
172458,30.23453,-97.70211,Cheerful East Austin Bungalow with Large Yard
127802,32.7828,-117.25343,"Pacific View- 3 Story, Steps to Beach, Cozy Home!"
43845,33.92258,-118.36596,Modern Guesthouse
9236,38.90412539999999,-77.0165367,"Mt. Vernon 1BR w/ Gym, Pool nr Convention Center"
4831,37.78874,-122.42099,The Hidden Gem At Nob Hill in the Heart of SF
182645,45.57743364699155,-122.66646167155346,2BR | Wood Fireplace | Washer/Dryer
145868,36.14771,-86.78179,State-of-the-art 2BR Illume 2nd-Floor | Deck
144932,36.1444,-86.78504,HUGE PREMIUM GULCH HOME!‚òÖ16 BEDS!‚òÖSKYLINE VIEWS!‚òÖ
142983,36.13415,-86.76805,Renovated Pet-Friendly Nashville Home w/ Pvt. Yard
155294,39.76756,-105.01984,Spacious and Light-Filled Guest Unit
185808,47.66187,-122.33449,Modern Wallingford Studio (E2)
164843,30.30818,-97.71701,Hyde Park Studio is your Texas home
159791,41.89728,-87.65601,‚≠êÔ∏èCozy Garden Unit by Downtown & Blue Line Stop‚≠êÔ∏è
186218,47.5814,-122.40142,ALKI BEACH GETAWAY! Entire Apt -Across From Beach!
228707,42.32430523674081,-71.06804419511593,Chic 2BR in the heart of Boston
146172,36.15395,-86.76461,1BR Condo | Fast WiFi | AC | Near Attractions
227803,42.3452,-71.0728,Stylish Gray Street Monthly Rental! NEW
118476,35.47647,-82.50452,Laurel's Rest
191267,44.962032318115234,-93.31391143798828,Modern Executive Rental Near Lakes in Kenwood
197226,25.98751,-80.11806,Zen Vacation Rentals 2-Bedroom Ocean View Joyful
102387,40.73595,-73.95465,New Lovely 1-Bedroom | Cozy | Modern |
61294,34.0489,-118.34827,LARGE 3BR&3BT Villa with Garden&Private Parking!
118698,35.54901,-82.48007,5 minutes form Downtown and Biltmore Village!
98027,40.68578,-73.97424,Lovely studio in charming Brooklyn neighborhood
5935,37.76285,-122.43337,Fabulous Studio in the Castro District
173749,30.45409,-97.75853,"Getaway with Pool, Hot Tub, Arcade & 7 Bedrooms"
98212,40.70915,-73.96815,Entire Unit- Breath Taking Views Greenpoint
3851,37.74977,-122.40941,"Cozy In-Law, Private Entrance"
24825,34.10521,-117.76045,ENTIRE House!~3min to Old Town LaVerne!
154019,39.76326,-104.986893,RiNo/Downtown Denver 1-Bedroom Condo
126160,41.81344,-71.4248,The Red 3 BR Townhouse
19572,29.95499,-90.07316,"Snazzy 14th Floor Condo, Pool, Gym-Sleeps 4 #1414"
126547,41.43746,-71.49734,"Victorian home near beach, town and bike trail."
1961,37.7635,-122.42509,WALK TO ALL! AMAZING MISSION 2BR W/ PRIVATE DECK
44063,33.99114,-118.4688,Cheerful  house in Venice with yard near the beach
33635,34.18442,-118.2275,The DTLA Hideaway
201311,26.01576,-80.20897,The American Experience Close to Hard Rock/Stadium
89658,40.71127,-73.95232,"Loft in Williamsburg full of light, WFH friendly"
89815,40.74902,-73.97755,Midtown Manhattan's Best Studio
204851,26.05678,-80.13267,Oasis in Miamiüèù/5 ComfyBR/PrivatePoolüèä‚Äç‚ôÇÔ∏è/lounge
29203,34.11453,-118.36273,Villa Hermes
209349,26.19326,-80.11485,"Spacious Single-Family Home, 1 Mile to the Beach"
135939,32.76652,-117.25121,Family / Work Ocean Oasis - Sleeps 40 - 8 Car Parking
164343,30.21065,-97.80815,Tonight Only!
147810,36.15506185443292,-86.7753066116394,Luxe apt/8 min walk to Broadway/3 min walk to MCC
65028,34.09583298244787,-118.38118662142308,"Sleek Modern Hollywood Villa | Pool, Gym, Theater"
35922,34.10597,-118.31939,Studio in Great Hollywood Neighborhood
83571,40.74258,-73.98004,Cozy Studio in the heart of NYC
166157,30.2432,-97.73195,Cozy apartment close to the Downtown & Zilker Park
1867,37.72121,-122.40847,Cozy private studio
160006,41.89581,-87.65577,Walk to Local Hot Spots or Public Transit - Prime Location In the Heart of the Windy City - 747 Lofts Cabin 301
223406,36.14066,-115.16084,Vegas Strip & F1 Grand Prix walking distance
25360,34.03374,-118.72374,Beachfront Townhouse with Stunning Ocean Views
44957,33.98769,-118.45032,Architectural Venice Beach Showplace with Pool
147838,36.18826,-86.80442,9Beds | WI-FI | Balcony | Parking| 2mi2DT | NoFees
29930,34.7163,-118.13921,Very private clean and comfortable place to stay.
120532,44.86898,-123.01739,Bright and Modern Townhome - Perfect for Any Stay
20491,29.94253,-90.10509,Heavenly Attic Suite
17191,40.72145,-74.06546,2BD/2BA Lux 2 STORY UNIT Viewing NYC Skyline
53296,33.77803,-118.10111,Near the beach & central located
169583,30.17693,-97.76483,Quintessential Austin Home
212056,36.09359,-115.23377,Spacious New Remodel  Vacation Home
135165,32.77371,-117.2524,Spacious Beach Bungalow F-1
34814,34.06762,-118.1358,3B/2BA Home Walking Distance to Shops/Restaurants
70327,40.81211,-73.95323,"Charming, Artsy 1 Bedroom w/office"
75426,40.71471,-73.95848,Spacious light drenched 3 bedroom
165562,30.32176,-97.78914,Enjoy the Scenery from Palatial Estate House
207158,26.000299,-80.131477,Wonderful 4BR/3BA Villa Pool & Jacuzzi near Beach
197352,26.0482,-80.14153,Beautiful 2 - Bedroom Rental Unit near the Beach
198374,25.98679,-80.12298,Amazing Condo Breathtaking SouthWaterViews 22Floor
155013,39.7274646,-104.9851155,"Capitol Hill 2br w/ gym & w/d, nr Governor's Park"
215539,36.15325,-115.21104,Nice private Studio#3
200056,25.98816,-80.11981,"Lovely condo 2 bedrooms with pool, on the beach."
49131,34.03533,-118.46986,Clean Quiet Building in Santa Monica
157602,41.93413,-87.70511,Logan Square Lookout
125537,41.82512,-71.45319,"Whole 3rd Floor Apt., Private Bath, Free Parking"
157769,41.8946,-87.65474,747 Meteor
122301,39.98507,-83.0059,Free Parking | Brand New | Dog Friendly
183738,47.62223,-122.31873,"2 BR apartment, easy subway, free parking"
33352,34.13038,-118.25745,"Clean, spacious, and accessible"
130667,32.8045,-117.25218,Beach House Law Street
226611,42.34488,-71.07195,"* NEW Listing * A True GEM in South End , Boston!!"
128496,32.705406,-117.145569,Comfortable 2 BR Craftsman Home Near Downtown
179236,45.51665,-122.68637,The Historic Hafner Haus- 9 Bedrooms+Meeting Space
222340,36.03413,-115.17375,Resort Living/Serviced Apartment
202311,26.15629,-80.12731,NEW**Wilton Manors Oasis w/ Games Room/Heated Pool
178428,36.63355,-121.92461,Fully Updated Three bedroom home with Ocean Views
186268,47.6568,-122.3163,(8) Steps to UW bright corner 2nd floor
9949,38.91614,-77.0072,Downtown In-Law Suite
120386,44.91655,-123.04683,"Cindy's Nook,  Suite, w/Private Entrance & Sauna"
118598,35.64558,-82.47004,51-Acre Peaceful Retreat 9 Miles from Downtown
230714,37.55501,-122.26371,"Foster City 1BR w/ Pool, W/D, Gym, nr highways"
182462,45.56681,-122.64709,Modern 1-bedroom guesthouse
184805,47.66381,-122.35335,Walk to the Woodland Park Zoo from the Woodland Park Place
155977,39.75681564183693,-104.98279736376612,Dreamy RiNo Rooftop Hot Tub
159934,41.89768,-87.62033,Michigan Ave next to Ritz Carlton Hotel WiFi + GYM
226326,42.31213,-71.05081,Luxury Condo in Desired Savin Hill - Next to Beach
208366,26.12404,-80.13336,Las Olas Retreat #4
203887,26.02304,-80.25092,Beautiful/ Spacious Home- wheelchair Accessible
2457,37.78608,-122.41621,Charming/Cozy Remodeled Studio
130694,32.80375,-117.23988,"Namastay, a little longer!"
158200,41.91918,-87.70321,Logan Square Garden Sanctuary
178886,45.56436,-122.60984,Lovely 2BD Bungalow: Entire Home w/ Fireplace
119755,35.62625,-82.61658,*New*C'mon Get Hoppy|15 mins to DT and Biltmore
174767,30.27059,-97.74651,CW Austin Resort | 1BR/1BA King Bed w/ Gym & Pool
81441,40.71749,-73.95374,"Cozy BK Home - Private Balcony, Roof, 5 stars!"
223875,36.13804,-115.20225,2 story home 8 mins from the strip w/pool&balcony
175762,30.27598,-97.69341,"Studio Cottage near DT Austin, Dell, UT, Mueller"
119935,35.52571,-82.48966,High Above Asheville! Beautiful Long Range Views!
152932,39.75811,-105.017746,Contemporary Chic Lifestyle Loft | Espad√≠n LoHi
138825,32.76207,-117.07198,Renovated El Cerrito Gem
94535,40.73327,-74.0096,Equisite 1BR Loft in West Village
116006,37.39215,-122.08223,Historic Downtown Mtn View Home
150089,37.12548,-122.12516,"Mason - Cabin Masoods Lodge Boulder Creek, CA"
36930,34.07751,-118.69473,Malibu Retreat w/ Pool + Views Guest House Music
187928,47.6146099,-122.3481079,Charming studio in heart of Belltown with pool!
107311,40.68718586054521,-73.98096598684788,The Studio
139848,32.80011,-117.23235,Resort Style - Cottage
69000,40.75007,-73.99723,"Prime Chelsea/Hudson Yards, Quiet +Washer/Dryer"
127649,41.37331,-71.49415,Ever Popular Eastward Neighborhood Summer Home!
128614,32.73746,-117.17735,Urban 1 bdrm - Partial Patio Views of the Harbor
28140,34.03662,-118.26728,#16Lovely Studio in Downtown LA For Lease
23588,29.9442,-90.07371,Roami | 2-Story | Near Bourbon St | 2BR
41262,34.01619,-118.39439,Beautiful/Light Home in Fantastic Location!
217786,36.01905,-114.97917,"Vegas Saltwater Pool | Jacuzzi, Hammocks, RV"
94068,40.76344,-73.97524,Shoreham Hotel - Chic Unit in the heart of NYC!
83473,40.63877,-73.96728,Amazing Cortelyou road
65334,34.06213,-118.35174,1950 sq ft apartment for long term leass
87448,40.68023,-74.00107,‚òÖHomely Spacious Studio | Patio‚òÖ
47621,33.97789,-118.46243,Luxury 1 Bedroom Unit-Walk to Beach -Baby Friendly
36524,34.21244,-118.3837,No Hollywood Private Suite near Downtown & Freeway
184841,47.68387,-122.32977,Green Lake Carriage Apartment
137783,32.74643,-117.12797,North Park Delight
185957,47.61938,-122.33635,"Charming 1BR in South Lake Union, Gym + Rooftop"
